[{"lat":48.87242997325711,"lon":2.355489390173873,"id":10007,"name":"10007 - CHATEAU D'EAU","rawAddress":"57 RUE DU CHATEAU D'EAU - 75010 PARIS","display_name":"Château d'Eau - 57 Rue du Château d'Eau - 75010 Paris, Rue du Château d'Eau, Quartier de la Porte-Saint-Denis, 10e Arrondissement, Paris, Île-de-France, 75010, France métropolitaine","road":"Rue du Château d'Eau","district":"10e Arrondissement","postcode":"75010","city":"Paris"},{"lat":48.866285221156055,"lon":2.325249045083579,"id":1020,"name":"01020 - RIVOLI CONCORDE","rawAddress":"2 RUE CAMBON - 75001 PARIS","display_name":"2, Rue Cambon, Quartier Vendôme, 1er Arrondissement, Paris, Île-de-France, 75001, France métropolitaine","road":"Rue Cambon","district":"1er Arrondissement","postcode":"75001","city":"Paris"},{"lat":48.875518068648745,"lon":2.392960787279829,"id":19121,"name":"19121 - BELLEVILLE PRE SAINT GERVAIS","rawAddress":"195 RUE DE BELLEVILLE - 75019 PARIS","display_name":"Belleville Pré Saint-Gervais - 195 Rue de Belleville - 75019 Paris, Rue de Belleville, Ménilmontant, Belleville, Paris, Île-de-France, 75019, France métropolitaine","road":"Rue de Belleville","postcode":"75019","city":"Paris"},{"lat":48.827470501735846,"lon":2.278549600821535,"id":21311,"name":"21311 - GAMBETTA (ISSY LES MOULINEAUX)","rawAddress":"FACE AU 40 BOULEVARD GAMBETTA - 92130 ISSY LES MOULINEAUX","display_name":"Corentin Celton, Parvis Corentin Celton, Issy-les-Moulineaux, Boulogne-Billancourt, Hauts-de-Seine, Île-de-France, 92130, France métropolitaine","postcode":"92130","city":"Issy-les-Moulineaux"},{"lat":48.87069015790859,"lon":2.303222423974782,"id":8041,"name":"08041 - CHAMPS ELYSEES LINCOLN","rawAddress":"16 RUE DE LINCOLN - 75008 PARIS","display_name":"Champs-Élysées Lincoln, Rue Lincoln, Quartier des Champs-Élysées, 8e Arrondissement, Paris, Île-de-France, 75008, France métropolitaine","road":"Rue Lincoln","district":"8e Arrondissement","postcode":"75008","city":"Paris"},{"lat":48.85894298617901,"lon":2.331418204714572,"id":7006,"name":"07006 - QUAI VOLTAIRE","rawAddress":"QUAI VOLTAIRE - 75007 PARIS","display_name":"Populus, Quai Voltaire, Quartier Saint-Thomas-d'Aquin, 7e Arrondissement, Paris, Île-de-France, 75007, France métropolitaine","road":"Quai Voltaire","district":"7e Arrondissement","postcode":"75007","city":"Paris"},{"lat":48.892064086245426,"lon":2.323291341208543,"id":17006,"name":"17006 - GUY MOCQUET DAVY","rawAddress":"34 RUE GUY MOCQUET - 75017 PARIS","display_name":"Guy Môcquet, Rue Guy Môquet, Quartier des Épinettes, 17e Arrondissement, Paris, Île-de-France, 75017, France métropolitaine","road":"Rue Guy Môquet","district":"17e Arrondissement","postcode":"75017","city":"Paris"},{"lat":48.86557114282421,"lon":2.330567417577153,"id":1017,"name":"01017 - SAINT HONORE","rawAddress":"215 RUE SAINT HONORE - 75001 PARIS","display_name":"217, Rue Saint-Honoré, Quartier Vendôme, 1er Arrondissement, Paris, Île-de-France, 75001, France métropolitaine","road":"Rue Saint-Honoré","district":"1er Arrondissement","postcode":"75001","city":"Paris"},{"lat":48.870920487633555,"lon":2.229589352206592,"id":21503,"name":"21503 - LEDRU ROLLIN (SURESNES)","rawAddress":"13/15 RUE LEDRU ROLLIN - 92150 SURESNES","display_name":"Ledru Rollin (Suresnes), Rue Ledru-Rollin, Suresnes, Nanterre, Hauts-de-Seine, Île-de-France, 92150, France métropolitaine","road":"Rue Ledru-Rollin","postcode":"92150","city":"Suresnes"},{"lat":48.821039286989794,"lon":2.356345144172923,"id":13110,"name":"13110 - MOULIN DE LA POINTE","rawAddress":"66 RUE DU MOULIN DE LA POINTE - 75013 PARIS","display_name":"66, Rue du Moulin de la Pointe, Butte aux Cailles, Quartier de la Maison-Blanche, 13e Arrondissement, Paris, Île-de-France, 75013, France métropolitaine","road":"Rue du Moulin de la Pointe","district":"13e Arrondissement","postcode":"75013","city":"Paris"},{"lat":48.86024709541543,"lon":2.342302645725544,"id":1011,"name":"01011 - RIVOLI MAIRIE DU 1ER","rawAddress":"36 RUE DE L'ARBRE SEC - 75001 PARIS","display_name":"Rivoli - Mairie du 1er, Rue de l'Arbre Sec, Quartier Saint-Germain-l'Auxerrois, 1er Arrondissement, Paris, Île-de-France, 75001, France métropolitaine","road":"Rue de l'Arbre Sec","district":"1er Arrondissement","postcode":"75001","city":"Paris"},{"lat":48.857050394743816,"lon":2.422549956709779,"id":31709,"name":"31709 - MARCEL (BAGNOLET)","rawAddress":"FACE AU 184 RUE ETIENNE MARCEL - 93170 BAGNOLET","display_name":"Place de la Fraternité, Rue Étienne Marcel, Montreuil, Bobigny, Seine-Saint-Denis, Île-de-France, 93100, France métropolitaine","road":"Rue Étienne Marcel","postcode":"93100","city":"Montreuil"},{"lat":48.847724968984686,"lon":2.405907317017889,"id":20503,"name":"20503 - COURS DE VINCENNES PYRÉNÉES","rawAddress":"1 RUE DES PYRENEES - 75020 PARIS","display_name":"Le Vincennes, Cours de Vincennes, Quartier de Charonne, 20e Arrondissement, Paris, Île-de-France, 75020, France métropolitaine","road":"Cours de Vincennes","district":"20e Arrondissement","postcode":"75020","city":"Paris"},{"lat":48.858427696615,"lon":2.274308524144912,"id":16021,"name":"16021 - RUE FRANCOIS PONSARD","rawAddress":"1 RUE FRANCOIS PONSARD - 75016 PARIS","display_name":"1, Rue François Ponsard, Quartier de la Muette, 16e Arrondissement, Paris, Île-de-France, 75016;75116, France métropolitaine","road":"Rue François Ponsard","district":"16e Arrondissement","postcode":"75016;75116","city":"Paris"},{"lat":48.87963935299516,"lon":2.356904958415215,"id":10151,"name":"10151 - GARE DU NORD 1","rawAddress":"8-10 RUE DE DUNKERQUE - 75010 PARIS","display_name":"8, Rue de Dunkerque, Quartier Saint-Vincent-de-Paul, 10e Arrondissement, Paris, Île-de-France, 75010, France métropolitaine","road":"Rue de Dunkerque","district":"10e Arrondissement","postcode":"75010","city":"Paris"},{"lat":48.84486731955409,"lon":2.382578935054453,"id":12011,"name":"12011 - CHARENTON","rawAddress":"160 RUE CHARENTON - 75012 PARIS","display_name":"164, Rue de Charenton, 12e Arrondissement (urbain), Quartier des Quinze-Vingts, 12e Arrondissement, Paris, Île-de-France, 75012, France métropolitaine","road":"Rue de Charenton","district":"12e Arrondissement","postcode":"75012","city":"Paris"},{"lat":48.843860353248765,"lon":2.35190222528039,"id":5110,"name":"05110 - LACEPEDE","rawAddress":"27 RUE LACEPEDE - 75005 PARIS","display_name":"25, Rue Lacépède, Quartier Latin, 5e Arrondissement, Paris, Île-de-France, 75005, France métropolitaine","road":"Rue Lacépède","district":"5e Arrondissement","postcode":"75005","city":"Paris"},{"lat":48.863580506517565,"lon":2.342609463824718,"id":1008,"name":"01008 - LOUVRE / COQUILLERE","rawAddress":"9 rue COQUILLIERE 75001 PARIS","display_name":"9 Rue Coquillère, Rue Coquillère, Quartier Les Halles, 1er Arrondissement, Paris, Île-de-France, 75001, France métropolitaine","road":"Rue Coquillère","district":"1er Arrondissement","postcode":"75001","city":"Paris"},{"lat":48.867123446448645,"lon":2.336686608238879,"id":2007,"name":"02007 - CHABANAIS","rawAddress":"1 RUE CHABANAIS - 75002 PARIS","display_name":"3, Rue Chabanais, Quartier Vivienne, 2e Arrondissement, Paris, Île-de-France, 75002, France métropolitaine","road":"Rue Chabanais","district":"2e Arrondissement","postcode":"75002","city":"Paris"},{"lat":48.845182081538034,"lon":2.26211277356597,"id":16037,"name":"16037 - MOLITOR - MICHEL ANGE","rawAddress":"35 RUE MOLITOR - 75016 PARIS","display_name":"35, Rue Molitor, Quartier d'Auteuil, 16e Arrondissement, Paris, Île-de-France, 75016;75116, France métropolitaine","road":"Rue Molitor","district":"16e Arrondissement","postcode":"75016;75116","city":"Paris"},{"lat":48.85375961633593,"lon":2.424445808011069,"id":31006,"name":"31006 - REPUBLIQUE 2 (MONTREUIL)","rawAddress":"2/4 PLACE DE LA REPUBLIQUE - 93100 MONTREUIL","display_name":"France Télécom, Place de la République, Montreuil, Bobigny, Seine-Saint-Denis, Île-de-France, 93100, France métropolitaine","road":"Place de la République","postcode":"93100","city":"Montreuil"},{"lat":48.83481262982544,"lon":2.400927788127704,"id":12039,"name":"12039 - DECAEN","rawAddress":"45 AVENUE DU GENERAL MICHEL BIZOT - 75012 PARIS","display_name":"45, Avenue du Général Michel Bizot, 12e Arrondissement (urbain), Quartier de Picpus, 12e Arrondissement, Paris, Île-de-France, 75012, France métropolitaine","road":"Avenue du Général Michel Bizot","district":"12e Arrondissement","postcode":"75012","city":"Paris"},{"lat":48.89051191347665,"lon":2.270167225273174,"id":22001,"name":"22001 - CHATEAU (NEUILLY)","rawAddress":"26 BOULEVARD DU CHATEAU - 92200 NEUILLY","display_name":"26 Boulevard du Château - 92200 Neuilly, Boulevard Bineau, Neuilly-sur-Seine, Nanterre, Hauts-de-Seine, Île-de-France, 92200, France métropolitaine","road":"Boulevard Bineau","postcode":"92200","city":"Neuilly-sur-Seine"},{"lat":48.84819134858432,"lon":2.34183165485398,"id":5106,"name":"05106 - CUJAS","rawAddress":"22 RUE CUJAS - 75005 PARIS","display_name":"Accattone, Rue Cujas, Quartier de la Sorbonne, 5e Arrondissement, Paris, Île-de-France, 75005, France métropolitaine","road":"Rue Cujas","district":"5e Arrondissement","postcode":"75005","city":"Paris"},{"lat":48.84799219346147,"lon":2.296681685691776,"id":15123,"name":"15123 - RUE DU COMMERCE","rawAddress":"20 RUE DU COMMERCE - 75015 PARIS","display_name":"Rue du Commerce - 20 Rue du Commerce - 75015 Paris, Rue du Commerce, Quartier de Grenelle, 15e Arrondissement, Paris, Île-de-France, 75015, France métropolitaine","road":"Rue du Commerce","district":"15e Arrondissement","postcode":"75015","city":"Paris"},{"lat":48.875095937895146,"lon":2.24921698799858,"id":16124,"name":"16124 - SÈVRES NEUILLY","rawAddress":"Route de Sèvres à Neuilly - 75016 PARIS","display_name":"16-124, Route de Sèvres à Neuilly, Quartier de la Muette, 16e Arrondissement, Paris, Île-de-France, 75016;75116, France métropolitaine","road":"Route de Sèvres à Neuilly","district":"16e Arrondissement","postcode":"75016;75116","city":"Paris"},{"lat":48.83608867952291,"lon":2.418907594723682,"id":41605,"name":"41605 - GENERAL DE GAULLE 2 (SAINT MANDE)","rawAddress":"120 AVENUE GENERAL DE GAULLE - 94160 SAINT MANDE","display_name":"120, Avenue du Général de Gaulle, Saint-Mandé, Nogent-sur-Marne, Val-de-Marne, Île-de-France, 94160, France métropolitaine","road":"Avenue du Général de Gaulle","postcode":"94160","city":"Saint-Mandé"},{"lat":48.85664110011817,"lon":2.306598534111823,"id":7020,"name":"07020 - CLER","rawAddress":"FACE 3 RUE DU CHAMP DE MARS - 75007 PARIS","display_name":"43, Rue Cler, Quartier du Gros-Caillou, 7e Arrondissement, Paris, Île-de-France, 75007, France métropolitaine","district":"7e Arrondissement","postcode":"75007","city":"Paris"},{"lat":48.880079643111614,"lon":2.258576589883702,"id":16122,"name":"16122 - MUETTE NEUILLY","rawAddress":"ROUTE DE LA MUETTE A NEUILLY - 75016 PARIS","display_name":"Muette Neuilly, Route de La Muette à Neuilly, Quartier de la Porte-Dauphine, 16e Arrondissement, Paris, Île-de-France, 75016;75116, France métropolitaine","road":"Route de La Muette à Neuilly","district":"16e Arrondissement","postcode":"75016;75116","city":"Paris"},{"lat":48.83621036148383,"lon":2.281039381009245,"id":15110,"name":"15110 - PLACE ROBERT GUILLEMARD","rawAddress":"PLACE ROBERT GUILLEMARD - 75015 PARIS","display_name":"Balard - Lecourbe, Rue Leblanc, Quartier de Javel, 15e Arrondissement, Paris, Île-de-France, 75015, France métropolitaine","road":"Rue Leblanc","district":"15e Arrondissement","postcode":"75015","city":"Paris"},{"lat":48.85882890841428,"lon":2.378871327120361,"id":11024,"name":"11024 - BOULEVARD VOLTAIRE","rawAddress":"82 RUE SEDAINE - 75011 PARIS","display_name":"Mairie du 11e arrondissement, Rue Sedaine, Quartier de la Roquette, 11e Arrondissement, Paris, Île-de-France, 75011, France métropolitaine","road":"Rue Sedaine","district":"11e Arrondissement","postcode":"75011","city":"Paris"},{"lat":48.85558642847872,"lon":2.408762907764669,"id":20118,"name":"20118 - ORTEAUX MOURAUD","rawAddress":"100 RUE DES ORTEAUX - 75020 PARIS","display_name":"100, Rue des Orteaux, Quartier de Charonne, 20e Arrondissement, Paris, Île-de-France, 75020, France métropolitaine","road":"Rue des Orteaux","district":"20e Arrondissement","postcode":"75020","city":"Paris"},{"lat":48.856433706943704,"lon":2.379020587761426,"id":11006,"name":"11006 - LEDRU ROLLIN-BASFROI","rawAddress":"169 AVENUE LEDRU ROLLIN - 75011 PARIS","display_name":"Ledru Rollin Basfroi, Avenue Ledru-Rollin, Quartier de la Roquette, 11e Arrondissement, Paris, Île-de-France, 75011, France métropolitaine","road":"Avenue Ledru-Rollin","district":"11e Arrondissement","postcode":"75011","city":"Paris"},{"lat":48.835092787823875,"lon":2.353468135133752,"id":13007,"name":"13007 - LE BRUN GOBELINS","rawAddress":"42 RUE LE BRUN - 75013 PARIS","display_name":"Banque Populaire, Rue Le Brun, Quartier de la Salpêtrière, 13e Arrondissement, Paris, Île-de-France, 75013, France métropolitaine","road":"Rue Le Brun","district":"13e Arrondissement","postcode":"75013","city":"Paris"},{"lat":48.870314763994976,"lon":2.341878566630611,"id":2102,"name":"02102 - SAINT MARC","rawAddress":"8 RUE SAINT MARC - 75002 PARIS","display_name":"1, Galerie Saint-Marc, Quartier Vivienne, 2e Arrondissement, Paris, Île-de-France, 75002, France métropolitaine","district":"2e Arrondissement","postcode":"75002","city":"Paris"},{"lat":48.881769793858254,"lon":2.403179367969562,"id":19124,"name":"19124 - ALEXANDER FLEMMING","rawAddress":"RUE ALEXANDER FLEMMING - 75019 PARIS","display_name":"Alexander Fleming, Rue Alexander Flemming, Quartier d'Amérique, 19e Arrondissement, Paris, Île-de-France, 75019, France métropolitaine","road":"Rue Alexander Flemming","district":"19e Arrondissement","postcode":"75019","city":"Paris"},{"lat":48.821216789689345,"lon":2.321173502143062,"id":14020,"name":"14020 - PORTE DE MONTROUGE","rawAddress":"AV. DE LA PORTE DE MONTROUGE - 75014 PARIS","display_name":"JCDecaux, Avenue de la Porte de Montrouge, Quartier du Petit-Montrouge, 14e Arrondissement, Paris, Île-de-France, 75014, France métropolitaine","road":"Avenue de la Porte de Montrouge","district":"14e Arrondissement","postcode":"75014","city":"Paris"},{"lat":48.879332174655,"lon":2.368628715748762,"id":10110,"name":"10110 - LOUIS BLANC (PROP 2)","rawAddress":"10 RUE LOUIS BLANC - 75010 PARIS","display_name":"10, Rue Louis Blanc, Quartier de l'Hôpital Saint-Louis, 10e Arrondissement, Paris, Île-de-France, 75010, France métropolitaine","road":"Rue Louis Blanc","district":"10e Arrondissement","postcode":"75010","city":"Paris"},{"lat":48.86216198070008,"lon":2.41112578185621,"id":20104,"name":"20104 - RUE LOUIS LUMIÈRE","rawAddress":"68 RUE LOUIS LUMIERE - 75020 PARIS","display_name":"68, Rue Louis Lumière, Quartier de Charonne, 20e Arrondissement, Paris, Île-de-France, 75020, France métropolitaine","road":"Rue Louis Lumière","district":"20e Arrondissement","postcode":"75020","city":"Paris"},{"lat":48.87356870686902,"lon":2.281512522529856,"id":16102,"name":"16102 - PERGOLÈSE/ MARBEAU","rawAddress":"52-54 RUE PERGOLÈSE - 75016 PARIS","display_name":"58, Rue Pergolèse, Quartier de la Porte-Dauphine, 16e Arrondissement, Paris, Île-de-France, 75016;75116, France métropolitaine","road":"Rue Pergolèse","district":"16e Arrondissement","postcode":"75016;75116","city":"Paris"},{"lat":48.852618846108584,"lon":2.262930039103354,"id":16115,"name":"16115 - RAFFET","rawAddress":"52 RUE RAFFET - 75016 PARIS","display_name":"JCDecaux, Rue Raffet, Quartier d'Auteuil, 16e Arrondissement, Paris, Île-de-France, 75016;75116, France métropolitaine","road":"Rue Raffet","district":"16e Arrondissement","postcode":"75016;75116","city":"Paris"},{"lat":48.89834000227244,"lon":2.285089933584791,"id":23003,"name":"23003 - WILSON (LEVALLOIS)","rawAddress":"132 RUE DU PRESIDENT WILSON - 92300 LEVALLOIS","display_name":"23003, Rue du Président Wilson, Levallois-Perret, Nanterre, Hauts-de-Seine, Île-de-France, 92300, France métropolitaine","road":"Rue du Président Wilson","postcode":"92300","city":"Levallois-Perret"},{"lat":48.82558443109317,"lon":2.409830941796777,"id":12119,"name":"12119 - DOM PÉRIGNON GRAVELLE","rawAddress":"ROUTE DOM PERIGNON - 75012 PARIS","display_name":"Dom Pérignon - Gravelle, Route Dom Pérignon, Quartier de Picpus, 12e Arrondissement, Paris, Île-de-France, 75012, France métropolitaine","road":"Route Dom Pérignon","district":"12e Arrondissement","postcode":"75012","city":"Paris"},{"lat":48.903621012155874,"lon":2.306228565729878,"id":21108,"name":"21108 - VILLENEUVE 2 (CLICHY)","rawAddress":"6-8 RUE VILLENEUVE - 92110 CLICHY","display_name":"Mairie de Clichy, Rue Villeneuve, Clichy, Nanterre, Hauts-de-Seine, Île-de-France, 92110, France métropolitaine","road":"Rue Villeneuve","postcode":"92110","city":"Clichy"},{"lat":48.85165969291236,"lon":2.335504665009827,"id":6022,"name":"06022 - MARCHE SAINT GERMAIN - MABILLON","rawAddress":"17 RUE LOBINEAU - 75006 PARIS","display_name":"17, Rue Lobineau, Quartier de l'Odéon, 6e Arrondissement, Paris, Île-de-France, 75006, France métropolitaine","road":"Rue Lobineau","district":"6e Arrondissement","postcode":"75006","city":"Paris"},{"lat":48.8779512535706,"lon":2.381464662877906,"id":19024,"name":"19024 - BUTTES CHAUMONT","rawAddress":"28 / 30 RUE BOTZARIS - 75019 PARIS","display_name":"France Télécom, Rue Botzaris, Quartier du Combat, 19e Arrondissement, Paris, Île-de-France, 75019, France métropolitaine","road":"Rue Botzaris","district":"19e Arrondissement","postcode":"75019","city":"Paris"},{"lat":48.88414119396773,"lon":2.356109465877721,"id":10041,"name":"10041 - CHARTRES (18 ARR.)","rawAddress":"FACE 39 BOULEVARD DE LA CHAPELLE - 75010 PARIS","display_name":"10041, Boulevard de la Chapelle, La Goutte d'Or, Quartier de la Goutte-d'Or, 18e Arrondissement, Paris, Île-de-France, 75018, France métropolitaine","road":"Boulevard de la Chapelle","district":"18e Arrondissement","postcode":"75018","city":"Paris"},{"lat":48.867362297165805,"lon":2.396222890988687,"id":20111,"name":"20111 - L'ISLE ADAM PYRENÉES","rawAddress":"60 RUE VILLIERS DE L'ISLE ADAM - 75020 PARIS","display_name":"60, Rue Villiers de l'Isle Adam, Ménilmontant, Quartier du Père-Lachaise, 20e Arrondissement, Paris, Île-de-France, 75020, France métropolitaine","district":"20e Arrondissement","postcode":"75020","city":"Paris"},{"lat":48.88630005108641,"lon":2.377388863133627,"id":19117,"name":"19117 - EURYALE DEHAYNIN","rawAddress":"22 RUE EURYALE DEHAYNIN - 75019 PARIS","display_name":"Euryale Dehaynin - 22 Rue Euryale Dehaynin - 75019 Paris, Rue Euryale Dehaynin, Quartier de la Villette, 19e Arrondissement, Paris, Île-de-France, 75019, France métropolitaine","road":"Rue Euryale Dehaynin","district":"19e Arrondissement","postcode":"75019","city":"Paris"},{"lat":48.881725659667424,"lon":2.283682661669767,"id":17104,"name":"17104 - GENERAL KOENIG","rawAddress":"2 BOULEVARD AURELLE DE PALADINES - 75017 PARIS","display_name":"JCDecaux, Allée du Général Koenig, Quartier des Ternes, 17e Arrondissement, Paris, Île-de-France, 75017, France métropolitaine","district":"17e Arrondissement","postcode":"75017","city":"Paris"},{"lat":48.84524431387353,"lon":2.256939537401627,"id":16036,"name":"16036 - PORTE MOLITOR","rawAddress":"PLACE DE LA PORTE MOLITOR - 75016 PARIS","display_name":"Lycée Jean de La Fontaine, Rue Méryon, Quartier d'Auteuil, 16e Arrondissement, Paris, Île-de-France, 75016;75116, France métropolitaine","road":"Rue Méryon","district":"16e Arrondissement","postcode":"75016;75116","city":"Paris"},{"lat":48.87134532710352,"lon":2.300186572268202,"id":8115,"name":"08115 - BASSANO","rawAddress":"10 RUE VERNET - 75008 PARIS","display_name":"Bassano, Rue Vernet, Quartier des Champs-Élysées, 8e Arrondissement, Paris, Île-de-France, 75008, France métropolitaine","road":"Rue Vernet","district":"8e Arrondissement","postcode":"75008","city":"Paris"},{"lat":48.889351453486974,"lon":2.370774488055213,"id":19002,"name":"19002 - TANGER","rawAddress":"45 & 48 RUE RIQUET - 75019 PARIS","display_name":"La Poste, Rue de Tanger, Quartier de la Villette, 19e Arrondissement, Paris, Île-de-France, 75019, France métropolitaine","road":"Rue de Tanger","district":"19e Arrondissement","postcode":"75019","city":"Paris"},{"lat":48.83199981539791,"lon":2.253719988007252,"id":21020,"name":"21020 - REPUBLIQUE 2 (BOULOGNE-BILLANCOURT)","rawAddress":"28 Bd de la République 92100 BOULOGNE BILLANCOURT","display_name":"Renault Minute, Boulevard de la République, Boulogne-Billancourt, Hauts-de-Seine, Île-de-France, 92100, France métropolitaine","road":"Boulevard de la République","postcode":"92100","city":"Boulogne-Billancourt"},{"lat":48.89002290339246,"lon":2.342450012678194,"id":18016,"name":"18016 - FRANCOEUR CAULAINCOURT","rawAddress":"1 RUE FRANCOEUR - 75018 PARIS","display_name":"La Femis, Rue Francoeur, Barbès, Quartier de Clignancourt, 18e Arrondissement, Paris, Île-de-France, 75018, France métropolitaine","road":"Rue Francoeur","district":"18e Arrondissement","postcode":"75018","city":"Paris"},{"lat":48.828174936365855,"lon":2.292587522548244,"id":15045,"name":"15045 - PLAINE","rawAddress":"AVENUE DE LA PORTE DE LA PLAINE - 75015 PARIS","display_name":"Plaine, Avenue de la Porte de la Plaine, Quartier Saint-Lambert, 15e Arrondissement, Paris, Île-de-France, 75015, France métropolitaine","road":"Avenue de la Porte de la Plaine","district":"15e Arrondissement","postcode":"75015","city":"Paris"},{"lat":48.87960645718048,"lon":2.314553524187054,"id":8037,"name":"08037 - MALSHERBES MONCEAU","rawAddress":"75 RUE DE MONCEAU - 75008 PARIS","display_name":"Malsherbes Monceau - 75 Rue de Monceau - 75008 Paris, Rue de Monceau, Quartier de l'Europe, 8e Arrondissement, Paris, Île-de-France, 75008, France métropolitaine","road":"Rue de Monceau","district":"8e Arrondissement","postcode":"75008","city":"Paris"},{"lat":48.888199236153696,"lon":2.310623417567974,"id":17049,"name":"17049 - SAUSSURE","rawAddress":"116 BIS RUE DE SAUSSURE - 75017 PARIS","display_name":"Saussure, Rue de Saussure, Quartier des Batignolles, 17e Arrondissement, Paris, Île-de-France, 75017, France métropolitaine","road":"Rue de Saussure","district":"17e Arrondissement","postcode":"75017","city":"Paris"},{"lat":48.851532005340125,"lon":2.38372328828755,"id":11107,"name":"11107 - BIBLIOTHEQUE FAIDHERBE","rawAddress":"11 RUE FAIDHERBE - 75011 PARIS","display_name":"11, Rue Faidherbe, Quartier Sainte-Marguerite, 11e Arrondissement, Paris, Île-de-France, 75011, France métropolitaine","road":"Rue Faidherbe","district":"11e Arrondissement","postcode":"75011","city":"Paris"},{"lat":48.86223871704716,"lon":2.341960937955673,"id":1027,"name":"01027 - BERGER","rawAddress":"49 RUE BERGER - 75001 PARIS","display_name":"51, Rue Berger, Quartier Les Halles, 1er Arrondissement, Paris, Île-de-France, 75001, France métropolitaine","road":"Rue Berger","district":"1er Arrondissement","postcode":"75001","city":"Paris"},{"lat":48.8592429763213,"lon":2.386593289210004,"id":11110,"name":"11110 - SQUARE ROQUETTE","rawAddress":"176 RUE DE LA ROQUETTE - 75011 PARIS","display_name":"176, Rue de la Roquette, Quartier de la Roquette, 11e Arrondissement, Paris, Île-de-France, 75011, France métropolitaine","road":"Rue de la Roquette","district":"11e Arrondissement","postcode":"75011","city":"Paris"},{"lat":48.843104494735165,"lon":2.259821391742079,"id":16040,"name":"16040 - EXELMANS","rawAddress":"73 BIS BOULEVARD EXELMANS - 75016 PARIS","display_name":"JCDecaux, Boulevard Exelmans, Quartier d'Auteuil, 16e Arrondissement, Paris, Île-de-France, 75016;75116, France métropolitaine","road":"Boulevard Exelmans","district":"16e Arrondissement","postcode":"75016;75116","city":"Paris"},{"lat":48.89605104637654,"lon":2.296836251513375,"id":23005,"name":"23005 - BRIAND (LEVALLOIS)","rawAddress":"152 RUE ARISTIDE BRIAND - 92300 LEVALLOIS","display_name":"JCDecaux, Rue Aristide Briand, Levallois-Perret, Nanterre, Hauts-de-Seine, Île-de-France, 92300, France métropolitaine","road":"Rue Aristide Briand","postcode":"92300","city":"Levallois-Perret"},{"lat":48.84367434144252,"lon":2.46308263962204,"id":41202,"name":"41202 - CHARMES (FONTENAY SOUS BOIS)","rawAddress":"ANGLE AVENUE DES CHARMES / AVENUE FOCH - 94120 FONTENAY SOUS BOIS","display_name":"Velib', Avenue Foch, Bois Clos d'Orléans, Gaston Charles, Fontenay-sous-Bois, Nogent-sur-Marne, Val-de-Marne, Île-de-France, 94120, France métropolitaine","road":"Avenue Foch","postcode":"94120","city":"Fontenay-sous-Bois"},{"lat":48.885140053090865,"lon":2.267800008253524,"id":22013,"name":"22013 - SAINTE FOY (NEUILLY)","rawAddress":"2 rue de Chézy - 92200 NEUILLY","display_name":"Face au 6 Avenue Sainte-Foy - 92200 Neuilly, Avenue Sainte-Foy, Neuilly-sur-Seine, Nanterre, Hauts-de-Seine, Île-de-France, 92200, France métropolitaine","road":"Avenue Sainte-Foy","postcode":"92200","city":"Neuilly-sur-Seine"},{"lat":48.83014719579205,"lon":2.323313445980224,"id":14026,"name":"14026 - PLANTES MOULIN VERT","rawAddress":"23 RUE DES PLANTES - 75014 PARIS","display_name":"Plantes-Moulin Vert, Rue des Plantes, Quartier du Petit-Montrouge, 14e Arrondissement, Paris, Île-de-France, 75014, France métropolitaine","road":"Rue des Plantes","district":"14e Arrondissement","postcode":"75014","city":"Paris"},{"lat":48.8691131525953,"lon":2.3325151052685,"id":2014,"name":"02014 - SAINT AUGUSTIN","rawAddress":"1  3 RUE DAUNOU - 75002 PARIS","display_name":"2014, Rue Daunou, Quartier Gaillon, 2e Arrondissement, Paris, Île-de-France, 75002, France métropolitaine","road":"Rue Daunou","district":"2e Arrondissement","postcode":"75002","city":"Paris"},{"lat":48.8597776444599,"lon":2.40344426132457,"id":20048,"name":"20048 - BAGNOLET","rawAddress":"110 RUE DE BAGNOLET - 75020 PARIS","display_name":"110, Rue de Bagnolet, Ménilmontant, Quartier du Père-Lachaise, 20e Arrondissement, Paris, Île-de-France, 75020, France métropolitaine","road":"Rue de Bagnolet","district":"20e Arrondissement","postcode":"75020","city":"Paris"},{"lat":48.825970136397075,"lon":2.360231840755094,"id":13035,"name":"13035 - IVRY TOLBIAC","rawAddress":"116 AVENUE DE CHOISY - 75013 PARIS","display_name":"13035, Avenue d'Ivry, Quartier asiatique, Quartier de la Gare, 13e Arrondissement, Paris, Île-de-France, 75013, France métropolitaine","road":"Avenue d'Ivry","district":"13e Arrondissement","postcode":"75013","city":"Paris"},{"lat":48.877750033418835,"lon":2.284444356553717,"id":17042,"name":"17042 - PORTE MAILLOT","rawAddress":"FACE 279 BOULEVARD PEREIRE - 75017 PARIS","display_name":"Porte Maillot, Boulevard Pereire, Quartier des Ternes, 17e Arrondissement, Paris, Île-de-France, 75017, France métropolitaine","road":"Boulevard Pereire","district":"17e Arrondissement","postcode":"75017","city":"Paris"},{"lat":48.85239300931143,"lon":2.341442522468474,"id":6016,"name":"06016 - DANTON","rawAddress":"11 RUE DANTON - 75006 PARIS","display_name":"Danton, Rue Serpente, Quartier de la Monnaie, 6e Arrondissement, Paris, Île-de-France, 75006, France métropolitaine","road":"Rue Serpente","district":"6e Arrondissement","postcode":"75006","city":"Paris"},{"lat":48.8983498515127,"lon":2.27917948878684,"id":23002,"name":"23002 - FRANCE (LEVALLOIS)","rawAddress":"157 ANATOLE FRANCE - 92300 LEVALLOIS","display_name":"Pont de Levallois, Rue du 19 Mars 1962, Levallois-Perret, Nanterre, Hauts-de-Seine, Île-de-France, 92300, France métropolitaine","road":"Rue du 19 Mars 1962","postcode":"92300","city":"Levallois-Perret"},{"lat":48.86082070611917,"lon":2.375636525867217,"id":11041,"name":"11041 - SAINT AMBROISE","rawAddress":"2 RUE LACHARRIERE - 75011 PARIS","display_name":"Saint-Ambroise - 2 Rue Lacharrière - 75011 Paris, Rue Lacharrière, Quartier Saint-Ambroise, 11e Arrondissement, Paris, Île-de-France, 75011, France métropolitaine","road":"Rue Lacharrière","district":"11e Arrondissement","postcode":"75011","city":"Paris"},{"lat":48.85581031101047,"lon":2.441520442445324,"id":31012,"name":"31012 - CARNOT (MONTREUIL)","rawAddress":"35/37 RUE CARNOT - 93100 MONTREUIL","display_name":"48, Rue Carnot, Montreuil, Bobigny, Seine-Saint-Denis, Île-de-France, 93100, France métropolitaine","road":"Rue Carnot","postcode":"93100","city":"Montreuil"},{"lat":48.87949288672707,"lon":2.291498184912626,"id":17036,"name":"17036 - AVENUE DE TERNES","rawAddress":"2-4 PLACE TRISTAN BERNARD - 75017 PARIS","display_name":"2, Place Tristan Bernard, Quartier des Ternes, 17e Arrondissement, Paris, Île-de-France, 75017, France métropolitaine","road":"Place Tristan Bernard","district":"17e Arrondissement","postcode":"75017","city":"Paris"},{"lat":48.85851071299225,"lon":2.358633579117469,"id":4013,"name":"04013 - FRANCS BOURGEOIS","rawAddress":"50 RUE VIEILLE DU TEMPLE - 75004 PARIS","display_name":"Francs-Bourgeois - 50 Rue Vieille du Temple - 75004 Paris, Rue Vieille du Temple, Quartier Saint-Gervais, 4e Arrondissement, Paris, Île-de-France, 75004, France métropolitaine","road":"Rue Vieille du Temple","district":"4e Arrondissement","postcode":"75004","city":"Paris"},{"lat":48.86492098253841,"lon":2.302549182385926,"id":8045,"name":"08045 - ALMA","rawAddress":"FACE 3 AVENUE MONTAIGNE - 75008 PARIS","display_name":"Aesculus, Avenue Montaigne, Quartier des Champs-Élysées, 8e Arrondissement, Paris, Île-de-France, 75008, France métropolitaine","road":"Avenue Montaigne","district":"8e Arrondissement","postcode":"75008","city":"Paris"},{"lat":48.845128293794325,"lon":2.401400707666872,"id":12016,"name":"12016 - PICPUS","rawAddress":"43 AVENUE DE SAINT MANDE - 75012 PARIS","display_name":"Picpus, Avenue de Saint-Mandé, 12e Arrondissement (urbain), Quartier de Picpus, 12e Arrondissement, Paris, Île-de-France, 75012, France métropolitaine","road":"Avenue de Saint-Mandé","district":"12e Arrondissement","postcode":"75012","city":"Paris"},{"lat":48.8600393112308,"lon":2.370984374239959,"id":11103,"name":"11103 - RICHARD LENOIR","rawAddress":"21 RUE PELEE - 75011 PARIS","display_name":"Richard Lenoir - 21 Rue Pelée - 75011 Paris, Rue Pelée, Quartier Saint-Ambroise, 11e Arrondissement, Paris, Île-de-France, 75011, France métropolitaine","road":"Rue Pelée","district":"11e Arrondissement","postcode":"75011","city":"Paris"},{"lat":48.84846886395447,"lon":2.32899674681117,"id":6030,"name":"06030 - ASSAS-VAUGIRARD","rawAddress":"22 RUE D'ASSAS - 75006 PARIS","display_name":"22, Rue d'Assas, Quartier Notre-Dame-des-Champs, 6e Arrondissement, Paris, Île-de-France, 75006, France métropolitaine","road":"Rue d'Assas","district":"6e Arrondissement","postcode":"75006","city":"Paris"},{"lat":48.89710985013293,"lon":2.309900498213689,"id":21102,"name":"21102 - NATIONS UNIES (CLICHY)","rawAddress":"PLACE DES NATIONS UNIES - 92110 CLICHY","display_name":"Place des Nations Unies, Quartier des Épinettes, 17e Arrondissement, Paris, Île-de-France, 75017, France métropolitaine","road":"Place des Nations Unies","district":"17e Arrondissement","postcode":"75017","city":"Paris"},{"lat":48.831506675674554,"lon":2.329319363216664,"id":14008,"name":"14008 - MOUTON DUVERNET","rawAddress":"5 RUE MOUTON DUVERNET - 75014 PARIS","display_name":"Rue Mouton Duvernet, Quartier du Petit-Montrouge, 14e Arrondissement, Paris, Île-de-France, 75014, France métropolitaine","road":"Rue Mouton Duvernet","district":"14e Arrondissement","postcode":"75014","city":"Paris"},{"lat":48.902553278222726,"lon":2.348274936304947,"id":34005,"name":"34005 - LESENNE (SAINT OUEN)","rawAddress":"44 RUE ADRIEN LESENNE - 93400 SAINT OUEN","display_name":"34005, Rue Adrien Lesesne, Saint-Ouen, Saint-Denis, Seine-Saint-Denis, Île-de-France, 93400, France métropolitaine","road":"Rue Adrien Lesesne","postcode":"93400","city":"Saint-Ouen"},{"lat":48.83884902339515,"lon":2.389724508120191,"id":12029,"name":"12029 - DUGOMMIER","rawAddress":"FACE 4 BOULEVARD DE REUILLY - 75012 PARIS","display_name":"Dugommier, Boulevard de Reuilly, 12e Arrondissement (urbain), Quartier de Picpus, 12e Arrondissement, Paris, Île-de-France, 75012, France métropolitaine","road":"Boulevard de Reuilly","district":"12e Arrondissement","postcode":"75012","city":"Paris"},{"lat":48.9057350760539,"lon":2.33149745979217,"id":34008,"name":"34008 - GARIBALDI (SAINT OUEN)","rawAddress":"FACE AU 4 AVENUE GARIBALDI / AVENUE GABRIEL PERI - 93400 SAINT OUEN","display_name":"Vélib', Rue Garibaldi, Saint-Ouen, Saint-Denis, Seine-Saint-Denis, Île-de-France, 93400, France métropolitaine","road":"Rue Garibaldi","postcode":"93400","city":"Saint-Ouen"},{"lat":48.875034655883944,"lon":2.359801238597928,"id":10016,"name":"10016 - VILLEMIN","rawAddress":"29 RUE DES RECOLLETS - 75010 PARIS","display_name":"29, Rue des Récollets, Quartier de la Porte-Saint-Martin, 10e Arrondissement, Paris, Île-de-France, 75010, France métropolitaine","road":"Rue des Récollets","district":"10e Arrondissement","postcode":"75010","city":"Paris"},{"lat":48.836709496490144,"lon":2.283692380806422,"id":15055,"name":"15055 - VASCO DE GAMA","rawAddress":"44 RUE VASCO DE GAMA - 75015 PARIS","display_name":"Vasco de Gama, Rue Vasco de Gama, Quartier de Javel, 15e Arrondissement, Paris, Île-de-France, 75015, France métropolitaine","road":"Rue Vasco de Gama","district":"15e Arrondissement","postcode":"75015","city":"Paris"},{"lat":48.83540571295384,"lon":2.358218345030439,"id":13011,"name":"13011 - COMPO FORMIO","rawAddress":"112 BD DE L'HOPITAL - 75013 PARIS","display_name":"Boulevard de l'Hopital, Boulevard de l'Hôpital, Quartier de la Salpêtrière, 13e Arrondissement, Paris, Île-de-France, 75013, France métropolitaine","road":"Boulevard de l'Hôpital","district":"13e Arrondissement","postcode":"75013","city":"Paris"},{"lat":48.862081867033794,"lon":2.261746386041142,"id":16129,"name":"16129 - BOIS DE BOULOGNE / PORTE DE LA MUETTE 1","rawAddress":"CHEMIN DE LA CEINTURE DU LAC INTERIEUR / AVENUE DE SAINT CLOUD - 75016 PARIS","display_name":"Bois de Boulogne / Porte de La Muette 1, Chemin de Ceinture du Lac Inférieur, Quartier de la Muette, 16e Arrondissement, Paris, Île-de-France, 75016;75116, France métropolitaine","road":"Chemin de Ceinture du Lac Inférieur","district":"16e Arrondissement","postcode":"75016;75116","city":"Paris"},{"lat":48.86382517434147,"lon":2.38090637715497,"id":11028,"name":"11028 - BLUETS REPUBLIQUE","rawAddress":"FACE 20 RUE GUILLAUME BERTRAND - 75011 PARIS","display_name":"Bluets République - 20 Rue Guillaume Bertrand - 75011 Paris, Rue Guillaume Bertrand, Quartier Saint-Ambroise, 11e Arrondissement, Paris, Île-de-France, 75011, France métropolitaine","road":"Rue Guillaume Bertrand","district":"11e Arrondissement","postcode":"75011","city":"Paris"},{"lat":48.828753141436465,"lon":2.245911467014621,"id":21016,"name":"21016 - POINT DU JOUR (BOULOGNE-BILLANCOURT)","rawAddress":"118 RUE DU POINT DU JOUR - 92100 BOULOGNE BILLANCOURT","display_name":"Point du Jour Boulogne Billancourt, Rue du Point du Jour, Boulogne-Billancourt, Hauts-de-Seine, Île-de-France, 92100, France métropolitaine","road":"Rue du Point du Jour","postcode":"92100","city":"Boulogne-Billancourt"},{"lat":48.878410386482805,"lon":2.297831064713626,"id":17045,"name":"17045 - PLACE DES TERNES - 5","rawAddress":"5 PLACE DES TERNES - 75017 PARIS","display_name":"Tilia, Place des Ternes, Quartier des Ternes, 17e Arrondissement, Paris, Île-de-France, 75017, France métropolitaine","road":"Place des Ternes","district":"17e Arrondissement","postcode":"75017","city":"Paris"},{"lat":48.86787670551736,"lon":2.372705978671471,"id":11034,"name":"11034 - PARMENTIER FONTAINE AU ROI","rawAddress":"124 AVENUE PARMENTIER - 75011 PARIS","display_name":"Parmentier Fontaine au Roi - 124 Avenue Parmentier - 75011 Paris, Avenue Parmentier, Quartier de la Folie-Méricourt, 11e Arrondissement, Paris, Île-de-France, 75011, France métropolitaine","road":"Avenue Parmentier","district":"11e Arrondissement","postcode":"75011","city":"Paris"},{"lat":48.842738478257814,"lon":2.329794221763396,"id":6007,"name":"06007 - VAVIN","rawAddress":"18 RUE BREA - 75006 PARIS","display_name":"Vavin, 18, Rue Bréa, Quartier Notre-Dame-des-Champs, 6e Arrondissement, Paris, Île-de-France, 75006, France métropolitaine","road":"Rue Bréa","district":"6e Arrondissement","postcode":"75006","city":"Paris"},{"lat":48.82503085292528,"lon":2.326412869398186,"id":14019,"name":"14019 - SARETTE GENERAL LECLERC","rawAddress":"58 RUE SARRETTE - 75014 PARIS","display_name":"Rue Sarette, Rue Sarrette, Quartier du Petit-Montrouge, 14e Arrondissement, Paris, Île-de-France, 75014, France métropolitaine","road":"Rue Sarrette","district":"14e Arrondissement","postcode":"75014","city":"Paris"},{"lat":48.807259280597854,"lon":2.375130199053175,"id":42009,"name":"42009 - VERDUN (IVRY)","rawAddress":"157-165 AVENUE DE VERDUN - 94200 IVRY","display_name":"EDF, Rue Michelet, Ivry-sur-Seine, Créteil, Val-de-Marne, Île-de-France, 94200, France métropolitaine","road":"Rue Michelet","postcode":"94200","city":"Ivry-sur-Seine"},{"lat":48.84703008062633,"lon":2.321289421006791,"id":6108,"name":"06108 - SAINT ROMAIN CHERCHE MIDI","rawAddress":"20 RUE SAINT ROMAIN - 75006 PARIS","display_name":"20, Rue Saint-Romain, Quartier Notre-Dame-des-Champs, 6e Arrondissement, Paris, Île-de-France, 75006, France métropolitaine","road":"Rue Saint-Romain","district":"6e Arrondissement","postcode":"75006","city":"Paris"},{"lat":48.867293262819686,"lon":2.340563686363604,"id":2008,"name":"02008 - MAIRIE DU 2EME","rawAddress":"11 RUE DE LA BANQUE - 75002 PARIS","display_name":"Mairie du 2ème, Rue de la Banque, Quartier Vivienne, 2e Arrondissement, Paris, Île-de-France, 75002, France métropolitaine","road":"Rue de la Banque","district":"2e Arrondissement","postcode":"75002","city":"Paris"},{"lat":48.851167240679665,"lon":2.284607607567737,"id":15102,"name":"15102 - SQUARE BELA BARTOK","rawAddress":"QUAI DE GRENELLE - 75015 PARIS","display_name":"Square Bela Bartok - Quai Grenelle - 75015 Paris, Quai de Grenelle, Quartier de Grenelle, 15e Arrondissement, Paris, Île-de-France, 75015, France métropolitaine","road":"Quai de Grenelle","district":"15e Arrondissement","postcode":"75015","city":"Paris"},{"lat":48.86349701996373,"lon":2.334846327550268,"id":1023,"name":"01023 - ANDRE MALRAUX MUSEE DU LOUVRE","rawAddress":"165 RUE SAINT HONORE - 75001 PARIS","display_name":"André Malraux Musée du Louvre, Rue Saint-Honoré, Quartier Vendôme, 1er Arrondissement, Paris, Île-de-France, 75001, France métropolitaine","road":"Rue Saint-Honoré","district":"1er Arrondissement","postcode":"75001","city":"Paris"},{"lat":48.85839567854653,"lon":2.414860628003844,"id":31707,"name":"31707 - VAILLANT (BAGNOLET)","rawAddress":"FACE 70 RUE EDOUARD VAILLANT - 93170 BAGNOLET","display_name":"31707, Rue Édouard Vaillant, Bagnolet, Bobigny, Seine-Saint-Denis, Île-de-France, 93170, France métropolitaine","road":"Rue Édouard Vaillant","postcode":"93170","city":"Bagnolet"},{"lat":48.896787395899615,"lon":2.310714419009491,"id":17014,"name":"17014 - PORTE DE CLICHY - AVENUE DE CLICHY","rawAddress":"12 AVENUE DE LA PORTE DE CLICHY - 75017 PARIS","display_name":"JCDecaux, Boulevard Périphérique Intérieur, Quartier des Épinettes, 17e Arrondissement, Paris, Île-de-France, 75017, France métropolitaine","road":"Boulevard Périphérique Intérieur","district":"17e Arrondissement","postcode":"75017","city":"Paris"},{"lat":48.88778177066001,"lon":2.350517738222509,"id":18013,"name":"18013 - CHATEAU ROUGE","rawAddress":"28 RUE POULET - 75018 PARIS","display_name":"31, Rue Poulet, Barbès, Quartier de Clignancourt, 18e Arrondissement, Paris, Île-de-France, 75018, France métropolitaine","road":"Rue Poulet","district":"18e Arrondissement","postcode":"75018","city":"Paris"},{"lat":48.849159689167834,"lon":2.356140327475379,"id":5020,"name":"05020 - PONT DE SULLY RIVE GAUCHE","rawAddress":"03 RUE DES FOSSES SAINT BERNARD - 75005 PARIS","display_name":"JCDecaux, Rue des Fossés Saint-Bernard, Quartier Saint-Victor, 5e Arrondissement, Paris, Île-de-France, 75005, France métropolitaine","road":"Rue des Fossés Saint-Bernard","district":"5e Arrondissement","postcode":"75005","city":"Paris"},{"lat":48.816939911291605,"lon":2.280989480484553,"id":21701,"name":"21701 - LARMEROUX (VANVES)","rawAddress":"FACE 5 BIS RUE LARMEROUX - 92170 VANVES","display_name":"France Télécom, Allée Baudelaire, Vanves, Antony, Hauts-de-Seine, Île-de-France, 92170, France métropolitaine","road":"Allée Baudelaire","postcode":"92170","city":"Vanves"},{"lat":48.81524985420581,"lon":2.298000156576173,"id":22406,"name":"22406 - MOQUET (MALAKOFF)","rawAddress":"81 RUE GUY MOQUET - 92240 MALAKOFF","display_name":"81, Rue Guy Môquet, Malakoff, Antony, Hauts-de-Seine, Île-de-France, 92240, France métropolitaine","road":"Rue Guy Môquet","postcode":"92240","city":"Malakoff"},{"lat":48.88320784122797,"lon":2.330849949028507,"id":9038,"name":"09038 - SQUARE BERLIOZ","rawAddress":"50 BIS RUE DOUAI - 75009 PARIS","display_name":"50b, Rue de Douai, Quartier Saint-Georges, 9e Arrondissement, Paris, Île-de-France, 75009, France métropolitaine","road":"Rue de Douai","district":"9e Arrondissement","postcode":"75009","city":"Paris"},{"lat":48.81467965888627,"lon":2.287400457411747,"id":22407,"name":"22407 - BARBUSSE (MALAKOFF)","rawAddress":"ROND POINT HENRI BARBUSSE - 92240 MALAKOFF","display_name":"JCDecaux, Rond-Point Henri Barbusse, Malakoff, Antony, Hauts-de-Seine, Île-de-France, 92240, France métropolitaine","road":"Rond-Point Henri Barbusse","postcode":"92240","city":"Malakoff"},{"lat":48.903964024558526,"lon":2.383125490914395,"id":33003,"name":"33003 - FAURE (AUBERVILLIERS)","rawAddress":"ANGLE RUE BORDIER ET BOULEVARD FELIX FAURE  - 93300 AUBERVILLIERS","display_name":"33003, Rue Bordier, Aubervilliers, Saint-Denis, Seine-Saint-Denis, Île-de-France, 93300, France métropolitaine","road":"Rue Bordier","postcode":"93300","city":"Aubervilliers"},{"lat":48.832570718038,"lon":2.371231986681921,"id":13015,"name":"13015 - WEISS","rawAddress":"2 RUE LOUIS WEISS - 75013 PARIS","display_name":"Weiss, Rue du Chevaleret, Quartier asiatique, Quartier de la Gare, 13e Arrondissement, Paris, Île-de-France, 75013, France métropolitaine","road":"Rue du Chevaleret","district":"13e Arrondissement","postcode":"75013","city":"Paris"},{"lat":48.81625825722598,"lon":2.344181922989554,"id":13027,"name":"13027 - MAZAGRAND COUBERTIN","rawAddress":"AVENUE DE LA PORTE DE GENTILLY - 75013 PARIS","display_name":"Mazagrand-Coubertin, Place Mazagran, Cité florale, Quartier de la Maison-Blanche, 13e Arrondissement, Paris, Île-de-France, 75013, France métropolitaine","road":"Place Mazagran","district":"13e Arrondissement","postcode":"75013","city":"Paris"},{"lat":48.806380010297374,"lon":2.336710402545291,"id":41101,"name":"41101 - DOUMER (ARCUEIL)","rawAddress":"FACE AU 11 AVENUE PAUL DOUMER - 94110 ARCUEIL","display_name":"Hôtel de Ville d'Arcueil, Mail Gaston Doiselet, Arcueil, L'Haÿ-les-Roses, Val-de-Marne, Île-de-France, 94110, France métropolitaine","postcode":"94110","city":"Arcueil"},{"lat":48.839199167158384,"lon":2.32955509720774,"id":14002,"name":"14002 - RASPAIL QUINET","rawAddress":"FACE 4 BD EDGAR QUINET - 75014 PARIS","display_name":"Autolib, Boulevard Edgar Quinet, Quartier du Montparnasse, 14e Arrondissement, Paris, Île-de-France, 75014, France métropolitaine","road":"Boulevard Edgar Quinet","district":"14e Arrondissement","postcode":"75014","city":"Paris"},{"lat":48.87113994970465,"lon":2.36628044396993,"id":10013,"name":"10013 - SAINT LOUIS","rawAddress":"2 RUE ALIBERT - 75010 PARIS","display_name":"4, Rue Alibert, Quartier de la Porte-Saint-Martin, 10e Arrondissement, Paris, Île-de-France, 75010, France métropolitaine","road":"Rue Alibert","district":"10e Arrondissement","postcode":"75010","city":"Paris"},{"lat":48.85616737956336,"lon":2.394825009354706,"id":20014,"name":"20014 - ALEXANDRE DUMAS","rawAddress":"142 BD CHARONNE - 75020 PARIS","display_name":"20014, Boulevard de Charonne, Ménilmontant, Quartier du Père-Lachaise, 20e Arrondissement, Paris, Île-de-France, 75020, France métropolitaine","district":"20e Arrondissement","postcode":"75020","city":"Paris"},{"lat":48.889488420014786,"lon":2.419848968734546,"id":35013,"name":"35013 - TELL (PANTIN)","rawAddress":"1 RUE GUILLAUME TELL / FACE AU 64 BENJAMIN DELESSERT- 93500 PANTIN","display_name":"35013, Rue Guillaume Tell, Pantin, Bobigny, Seine-Saint-Denis, Île-de-France, 93500, France métropolitaine","postcode":"93500","city":"Pantin"},{"lat":48.880939489446405,"lon":2.271540900630842,"id":22009,"name":"22009 - DE GAULLE 2 (NEUILLY)","rawAddress":"101 AVENUE CHARLES DE GAULLE - 92200 NEUILLY SUR SEINE","display_name":"De Gaulle 2 Neuilly, Avenue Charles de Gaulle, Neuilly-sur-Seine, Nanterre, Hauts-de-Seine, Île-de-France, 92200, France métropolitaine","road":"Avenue Charles de Gaulle","postcode":"92200","city":"Neuilly-sur-Seine"},{"lat":48.8984521733198,"lon":2.36960946333546,"id":18049,"name":"18049 - PTE D'AUBERVILLIERS","rawAddress":"3-5 BOULEVARD NEY - 75018 PARIS","display_name":"Platanus, Boulevard Ney, Quartier de la Chapelle, 18e Arrondissement, Paris, Île-de-France, 75018, France métropolitaine","road":"Boulevard Ney","district":"18e Arrondissement","postcode":"75018","city":"Paris"},{"lat":48.85083365440354,"lon":2.342198228067738,"id":6031,"name":"06031 - SAINT MICHEL SARRAZIN","rawAddress":"5 RUE PIERRE SARAZIN - 75006 PARIS","display_name":"Saint-Michel Sarrazin, Rue Pierre Sarrazin, Quartier de la Monnaie, 6e Arrondissement, Paris, Île-de-France, 75006, France métropolitaine","road":"Rue Pierre Sarrazin","district":"6e Arrondissement","postcode":"75006","city":"Paris"},{"lat":48.8405958674037,"lon":2.315363038202961,"id":15004,"name":"15004 - VAUGIRARD PASTEUR","rawAddress":"DEV 71 BOULEVARD DE VAUGIRARD - 75015 PARIS","display_name":"Vaugirard - Pasteur, Boulevard de Vaugirard, Quartier Necker, 15e Arrondissement, Paris, Île-de-France, 75015, France métropolitaine","road":"Boulevard de Vaugirard","district":"15e Arrondissement","postcode":"75015","city":"Paris"},{"lat":48.856246721700735,"lon":2.353281344612189,"id":4016,"name":"04016 - LOBAU","rawAddress":"3 RUE LOBAU - 75004 PARIS","display_name":"Lobau - 3 Rue Lobau - 75004 Paris, Rue de Lobau, Beaubourg, 4e Arrondissement, Paris, Île-de-France, 75004, France métropolitaine","road":"Rue de Lobau","district":"4e Arrondissement","postcode":"75004","city":"Paris"},{"lat":48.827989487365954,"lon":2.30567210645885,"id":14024,"name":"14024 - RAYMOND LAUSSERAND","rawAddress":"RUE VERCINGETORIX - 75014 PARIS","display_name":"Raymond Losserand, Rue Vercingétorix, Quartier de Plaisance, 14e Arrondissement, Paris, Île-de-France, 75014, France métropolitaine","district":"14e Arrondissement","postcode":"75014","city":"Paris"},{"lat":48.88915491757438,"lon":2.383375417280365,"id":19015,"name":"19015 - THIONVILLE","rawAddress":"24 RUE DE THIONVILLE - 75019 PARIS","display_name":"Thionville - 24 Rue de Thionville - 75019 Paris, Rue de Thionville, Quartier de la Villette, 19e Arrondissement, Paris, Île-de-France, 75019, France métropolitaine","road":"Rue de Thionville","district":"19e Arrondissement","postcode":"75019","city":"Paris"},{"lat":48.8123678293798,"lon":2.36180984825322,"id":42707,"name":"42707 - OKABE (LE KREMLIN-BICETRE)","rawAddress":"51 avenue de Fontainebleau - 94270 Le Kremlin-Bicetre","display_name":"Okabe (le kremlin-bicetre), Avenue de Fontainebleau, Le Kremlin-Bicêtre, L'Haÿ-les-Roses, Val-de-Marne, Île-de-France, 94270, France métropolitaine","road":"Avenue de Fontainebleau","postcode":"94270","city":"Le Kremlin-Bicêtre"},{"lat":48.83230838936651,"lon":2.386370278568759,"id":12034,"name":"12034 - PIROGUES DE BERCY","rawAddress":"20 RUE DES PIROGUES DE BERCY - 75012 PARIS","display_name":"20, Rue des Pirogues de Bercy, 12e Arrondissement (urbain), Quartier de Bercy, 12e Arrondissement, Paris, Île-de-France, 75012, France métropolitaine","road":"Rue des Pirogues de Bercy","district":"12e Arrondissement","postcode":"75012","city":"Paris"},{"lat":48.83550440751353,"lon":2.232531432424099,"id":21010,"name":"21010 - SILLY (BOULOGNE-BILLANCOURT)","rawAddress":"93 RUE DE SILLY - 92100 BOULOGNE-BILLANCOURT","display_name":"93 Rue de Silly - 92100 Boulogne-Billancourt, Rue de Silly, Boulogne-Billancourt, Hauts-de-Seine, Île-de-France, 92100, France métropolitaine","road":"Rue de Silly","postcode":"92100","city":"Boulogne-Billancourt"},{"lat":48.848919007908286,"lon":2.347201329520476,"id":5007,"name":"05007 - ECOLES CARMES","rawAddress":"39 RUE DES ECOLES - 75005 PARIS","display_name":"39, Rue des Écoles, Quartier de la Sorbonne, 5e Arrondissement, Paris, Île-de-France, 75005, France métropolitaine","road":"Rue des Écoles","district":"5e Arrondissement","postcode":"75005","city":"Paris"},{"lat":48.85330527759475,"lon":2.334465461882703,"id":6012,"name":"06012 - SAINT GERMAIN COPEAU","rawAddress":"141 BD SAINT GERMAIN - 75006 PARIS","display_name":"143, Boulevard Saint-Germain, Quartier de Saint-Germain-des-Prés, 6e Arrondissement, Paris, Île-de-France, 75006, France métropolitaine","road":"Boulevard Saint-Germain","district":"6e Arrondissement","postcode":"75006","city":"Paris"},{"lat":48.84568897556758,"lon":2.374203690051493,"id":12007,"name":"12007 - GARE DE LYON CHALON","rawAddress":"FACE 54 RUE DE CHALON - 75012 PARIS","display_name":"Gare de Lyon Châlon, Rue Van Gogh, 12e Arrondissement (urbain), Quartier des Quinze-Vingts, 12e Arrondissement, Paris, Île-de-France, 75012, France métropolitaine","road":"Rue Van Gogh","district":"12e Arrondissement","postcode":"75012","city":"Paris"},{"lat":48.84315817822931,"lon":2.363748444641593,"id":5035,"name":"05035 - BUFFON AUSTERLITZ","rawAddress":"1 RUE BUFFON - 75005 PARIS","display_name":"JCDecaux, Rue Buffon, Quartier du Jardin des Plantes, 5e Arrondissement, Paris, Île-de-France, 75005, France métropolitaine","road":"Rue Buffon","district":"5e Arrondissement","postcode":"75005","city":"Paris"},{"lat":48.84183617360056,"lon":2.363468636860069,"id":13514,"name":"13514 - GARE D'AUSTERLITZ 2","rawAddress":"9 BOULEVARD DE L'HOPITAL - 75013 PARIS","display_name":"9, Boulevard de l'Hôpital, Quartier du Jardin des Plantes, 5e Arrondissement, Paris, Île-de-France, 75005, France métropolitaine","road":"Boulevard de l'Hôpital","district":"5e Arrondissement","postcode":"75005","city":"Paris"},{"lat":48.821111770492195,"lon":2.333785290429607,"id":14124,"name":"14124 - PORTE D'ARCUEIL","rawAddress":"AVENUE DAVID WEIL - 75014 PARIS","display_name":"Porte d'Arcueil, Impasse David Weill, Quartier du Parc-de-Montsouris, 14e Arrondissement, Paris, Île-de-France, 75014, France métropolitaine","road":"Impasse David Weill","district":"14e Arrondissement","postcode":"75014","city":"Paris"},{"lat":48.85681112307105,"lon":2.444987425339264,"id":31010,"name":"31010 - STALINGRAD (MONTREUIL)","rawAddress":"67-69 RUE DE STALINGRAD - 93100 MONTREUIL","display_name":"69, Rue de Stalingrad, Montreuil, Bobigny, Seine-Saint-Denis, Île-de-France, 93100, France métropolitaine","road":"Rue de Stalingrad","postcode":"93100","city":"Montreuil"},{"lat":48.87836138361425,"lon":2.305254448220567,"id":8044,"name":"08044 - VAN DYCK","rawAddress":"2 RUE ALFRED DE VIGNY - 75008 PARIS","display_name":"2, Rue Alfred de Vigny, Quartier de l'Europe, 8e Arrondissement, Paris, Île-de-France, 75008, France métropolitaine","road":"Rue Alfred de Vigny","district":"8e Arrondissement","postcode":"75008","city":"Paris"},{"lat":48.848175129981016,"lon":2.376358449431232,"id":12101,"name":"12101 - CHARENTON PRAGUE","rawAddress":"89 TER RUE DE CHARENTON - 75012 PARIS","display_name":"Charenton Prague - 89ter rue de Charenton - 75012 Paris, Rue de Charenton, 12e Arrondissement (urbain), Quartier des Quinze-Vingts, 12e Arrondissement, Paris, Île-de-France, 75012, France métropolitaine","road":"Rue de Charenton","district":"12e Arrondissement","postcode":"75012","city":"Paris"},{"lat":48.871242274166406,"lon":2.341394999257386,"id":2108,"name":"02108 - VIVIENNE","rawAddress":"42 RUE VIVIENNE - 75002 PARIS","display_name":"Vivienne, Rue Vivienne, Quartier Vivienne, 2e Arrondissement, Paris, Île-de-France, 75002, France métropolitaine","road":"Rue Vivienne","district":"2e Arrondissement","postcode":"75002","city":"Paris"},{"lat":48.871265918355746,"lon":2.403950752208758,"id":20037,"name":"20037 - SAINT FARGEAU","rawAddress":"177 AVENUE GAMBETTA - 75020 PARIS","display_name":"Saint-Fargeau - 177 Avenue Gambetta - 75020 Paris, Avenue Gambetta, Quartier Saint-Fargeau, 20e Arrondissement, Paris, Île-de-France, 75020, France métropolitaine","road":"Avenue Gambetta","district":"20e Arrondissement","postcode":"75020","city":"Paris"},{"lat":48.83252708397293,"lon":2.362354410392119,"id":13017,"name":"13017 - NATIONALE","rawAddress":"167 RUE NATIONALE - 75013 PARIS","display_name":"Nationale, Rue Nationale, Quartier asiatique, Quartier de la Gare, 13e Arrondissement, Paris, Île-de-France, 75013, France métropolitaine","district":"13e Arrondissement","postcode":"75013","city":"Paris"},{"lat":48.86387513126816,"lon":2.281890736577358,"id":16108,"name":"16108 - SABLONS","rawAddress":"40 RUE DES SABLONS - 75016 PARIS","display_name":"Sablons, Rue des Sablons, Quartier de la Porte-Dauphine, 16e Arrondissement, Paris, Île-de-France, 75016;75116, France métropolitaine","road":"Rue des Sablons","district":"16e Arrondissement","postcode":"75016;75116","city":"Paris"},{"lat":48.85845965431733,"lon":2.427390310720301,"id":31013,"name":"31013 - CENTENAIRE (MONTREUIL)","rawAddress":"8 RUE DU CENTENAIRE - 93100 MONTREUIL","display_name":"France Télécom, Rue du Centenaire, Montreuil, Bobigny, Seine-Saint-Denis, Île-de-France, 93100, France métropolitaine","road":"Rue du Centenaire","postcode":"93100","city":"Montreuil"},{"lat":48.816290677003934,"lon":2.311279543410485,"id":21201,"name":"21201 - JAURES (MONTROUGE)","rawAddress":"6 PLACE JEAN JAURES / RUE MAURICE ARNOUX ET RUE CAMILLE PELLETIN - 92120 MONTROUGE","display_name":"Jaurès-Montrouge, Place Jean Jaurès, Montrouge, Antony, Hauts-de-Seine, Île-de-France, 92120, France métropolitaine","road":"Place Jean Jaurès","postcode":"92120","city":"Montrouge"},{"lat":48.850735824128805,"lon":2.375870111706245,"id":12004,"name":"12004 - TRAVERSIERE","rawAddress":"76 RUE TRAVERSIERE - 75012 PARIS","display_name":"76, Rue Traversière, 12e Arrondissement (urbain), Quartier des Quinze-Vingts, 12e Arrondissement, Paris, Île-de-France, 75012, France métropolitaine","road":"Rue Traversière","district":"12e Arrondissement","postcode":"75012","city":"Paris"},{"lat":48.888013281448345,"lon":2.373759595522922,"id":19005,"name":"19005 - RIQUET","rawAddress":"56 AVENUE DE FLANDRE - 75019 PARIS","display_name":"Bar du Métro, Rue Riquet, Quartier de la Villette, 19e Arrondissement, Paris, Île-de-France, 75019, France métropolitaine","road":"Rue Riquet","district":"19e Arrondissement","postcode":"75019","city":"Paris"},{"lat":48.9113936890419,"lon":2.375281319974922,"id":33011,"name":"33011 - FAURE (AUBERVILLIERS)","rawAddress":"FACE 172-174 BOULEVARD FELIX FAURE - 93300 AUBERVILLIERS","display_name":"33011, Boulevard Felix Faure, Aubervilliers, Saint-Denis, Seine-Saint-Denis, Île-de-France, 93300, France métropolitaine","road":"Boulevard Felix Faure","postcode":"93300","city":"Aubervilliers"},{"lat":48.83908421830948,"lon":2.370532330985574,"id":13020,"name":"13020 - MENDES FRANCE","rawAddress":"FACE 15 RUE PAUL KLEE - 75013 PARIS","display_name":"Danse de la fontaine émergente, Place Augusta Holmes, Quartier de la Salpêtrière, 13e Arrondissement, Paris, Île-de-France, 75013, France métropolitaine","district":"13e Arrondissement","postcode":"75013","city":"Paris"},{"lat":48.82129237695624,"lon":2.273313693518059,"id":21308,"name":"21308 - LASSERRE (ISSY LES MOULINEAUX)","rawAddress":"FACE AU 27 RUE LASSERRE - 92130 ISSY LES MOULINEAUX","display_name":"27, Rue Lasserre, Issy-les-Moulineaux, Boulogne-Billancourt, Hauts-de-Seine, Île-de-France, 92130, France métropolitaine","road":"Rue Lasserre","postcode":"92130","city":"Issy-les-Moulineaux"},{"lat":48.89801434321367,"lon":2.333653376162832,"id":18112,"name":"18112 - HÔPITAL BICHAT","rawAddress":"2 RUE ARTHUR RANC - 75018 PARIS","display_name":"Hôpital Bichat, Rue Arthur Ranc, Quartier des Grandes-Carrières, 18e Arrondissement, Paris, Île-de-France, 75018, France métropolitaine","road":"Rue Arthur Ranc","district":"18e Arrondissement","postcode":"75018","city":"Paris"},{"lat":48.84159702890181,"lon":2.233496775544275,"id":21006,"name":"21006 - PARIS (BOULOGNE-BILLANCOURT)","rawAddress":"162 RUE DE PARIS - 92100 BOULOGNE-BILLANCOURT","display_name":"21006, Rue de Paris, Boulogne-Billancourt, Hauts-de-Seine, Île-de-France, 92100, France métropolitaine","road":"Rue de Paris","postcode":"92100","city":"Boulogne-Billancourt"},{"lat":48.8390304317692,"lon":2.417410435403506,"id":41601,"name":"41601 - GENERAL DE GAULLE (SAINT MANDE)","rawAddress":"86 AVENUE DU GENERAL DE GAULLE - 94160 SAINT MANDE","display_name":"Général de Gaulle Saint-Mandé, Avenue du Général de Gaulle, Saint-Mandé, Nogent-sur-Marne, Val-de-Marne, Île-de-France, 94160, France métropolitaine","road":"Avenue du Général de Gaulle","postcode":"94160","city":"Saint-Mandé"},{"lat":48.868144510482075,"lon":2.296149600985935,"id":16015,"name":"16015 - RUE DE BASSANO","rawAddress":"1 RUE DE BASSANO - 75016 PARIS","display_name":"1, Rue de Bassano, Quartier de Chaillot, 16e Arrondissement, Paris, Île-de-France, 75016;75116, France métropolitaine","road":"Rue de Bassano","district":"16e Arrondissement","postcode":"75016;75116","city":"Paris"},{"lat":48.872971251927126,"lon":2.329465611700831,"id":9032,"name":"09032 - MATHURINS","rawAddress":"12 RUE DES MATHURINS - 75009 PARIS","display_name":"12, Rue des Mathurins, Quartier de la Madeleine, 8e Arrondissement, Paris, Île-de-France, 75008, France métropolitaine","road":"Rue des Mathurins","district":"8e Arrondissement","postcode":"75008","city":"Paris"},{"lat":48.822528306004045,"lon":2.298631654119718,"id":22401,"name":"22401 - DE GAULLE (MALAKOFF)","rawAddress":"BOULEVARD CHARLES DE GAULLE (STATION DE METRO) - 92240 MALAKOFF","display_name":"La Poste, Boulevard Charles de Gaulle, Malakoff, Antony, Hauts-de-Seine, Île-de-France, 92240, France métropolitaine","road":"Boulevard Charles de Gaulle","postcode":"92240","city":"Malakoff"},{"lat":48.88611466796807,"lon":2.356855627529275,"id":18009,"name":"18009 - LEPINE","rawAddress":"12 RUE JEAN FRANCOIS LEPINE - 75018 PARIS","display_name":"Lépine, Rue Jean François Lépine, La Goutte d'Or, Quartier de la Goutte-d'Or, 18e Arrondissement, Paris, Île-de-France, 75018, France métropolitaine","road":"Rue Jean François Lépine","district":"18e Arrondissement","postcode":"75018","city":"Paris"},{"lat":48.88702120343877,"lon":2.366886248240863,"id":18039,"name":"18039 - EOLE","rawAddress":"41 RUE D'AUBERVILLIERS - 75018 PARIS","display_name":"Eole, Rue d'Aubervilliers, La Goutte d'Or, La Chapelle, Paris, Île-de-France, 75018, France métropolitaine","road":"Rue d'Aubervilliers","postcode":"75018","city":"Paris"},{"lat":48.832274660165,"lon":2.2340164013498,"id":21011,"name":"21011 - SILLY (BOULOGNE BILLANCOURT)","rawAddress":"153 RUE DE SILLY - 92100 BOULOGNE BILLANCOURT","display_name":"Lycée Étienne-Jules Marey - 153 Rue de Silly - 92100 Boulogne-Billancourt, Rue de Silly, Boulogne-Billancourt, Hauts-de-Seine, Île-de-France, 92100, France métropolitaine","road":"Rue de Silly","postcode":"92100","city":"Boulogne-Billancourt"},{"lat":48.84651692058683,"lon":2.343123803367338,"id":5006,"name":"05006 - SAINT JACQUES SOUFFLOT","rawAddress":"174 RUE SAINT JACQUES - 75005 PARIS","display_name":"Saint-Jacques Soufflot, Rue Saint-Jacques, Quartier du Val-de-Grâce, 5e Arrondissement, Paris, Île-de-France, 75005, France métropolitaine","road":"Rue Saint-Jacques","district":"5e Arrondissement","postcode":"75005","city":"Paris"},{"lat":48.856870467758306,"lon":2.370554639861521,"id":11033,"name":"11033 - BREGUET SABIN","rawAddress":"FACE 23 BD RICHARD LENOIR - 75011 PARIS","display_name":"Breguet Sabin - Face au 23 Boulevard Richar Lenoir - 75011 Paris, Boulevard Richard Lenoir, Quartier de la Roquette, 11e Arrondissement, Paris, Île-de-France, 75011, France métropolitaine","district":"11e Arrondissement","postcode":"75011","city":"Paris"},{"lat":48.83761417037952,"lon":2.397253782195704,"id":12111,"name":"12111 - DECAEN CANNEBIERE","rawAddress":"73 RUE CLAUDE DECAEN - 75012 PARIS","display_name":"73, Rue Claude Decaen, 12e Arrondissement (urbain), Quartier de Picpus, 12e Arrondissement, Paris, Île-de-France, 75012, France métropolitaine","road":"Rue Claude Decaen","district":"12e Arrondissement","postcode":"75012","city":"Paris"},{"lat":48.871476421300954,"lon":2.313885419949291,"id":8032,"name":"08032 - MATIGNON","rawAddress":"27 AVENUE MATIGNON - 75008 PARIS","display_name":"27, Avenue Matignon, Quartier de la Madeleine, 8e Arrondissement, Paris, Île-de-France, 75008, France métropolitaine","road":"Avenue Matignon","district":"8e Arrondissement","postcode":"75008","city":"Paris"},{"lat":48.864541626812056,"lon":2.375195196724585,"id":11105,"name":"11105 - REPUBLIQUE PARMENTIER","rawAddress":"82 AVENUE PARMENTIER - 75011 PARIS","display_name":"Sur Un Petit Vélo, 82, Avenue Parmentier, Quartier Saint-Ambroise, 11e Arrondissement, Paris, Île-de-France, 75011, France métropolitaine","road":"Avenue Parmentier","district":"11e Arrondissement","postcode":"75011","city":"Paris"},{"lat":48.862464980403914,"lon":2.354236781419645,"id":3010,"name":"03010 - BEAUBOURG","rawAddress":"46 RUE BEAUBOURG - 75003 PARIS","display_name":"46, Rue Beaubourg, Quartier Sainte-Avoye, 3e Arrondissement, Paris, Île-de-France, 75003, France métropolitaine","road":"Rue Beaubourg","district":"3e Arrondissement","postcode":"75003","city":"Paris"},{"lat":48.795797,"lon":2.325926,"id":1,"name":"00001 - BORNE TEST CACHAN 1","rawAddress":"60 rue Marcel bonnet - 94230 Cachan","display_name":"Les Lumières, Rue de l'Espérance, Cachan, L'Haÿ-les-Roses, Val-de-Marne, Île-de-France, 94230, France métropolitaine","road":"Rue de l'Espérance","postcode":"94230","city":"Cachan"},{"lat":48.880370620982944,"lon":2.352820057031213,"id":10028,"name":"10028 - GARE DU NORD DENAN","rawAddress":"24 RUE DE DUNKERQUE - 75010 PARIS","display_name":"Place de Roubaix - Gare du Nord, Rue de Dunkerque, Quartier Saint-Vincent-de-Paul, 10e Arrondissement, Paris, Île-de-France, 75010, France métropolitaine","road":"Rue de Dunkerque","district":"10e Arrondissement","postcode":"75010","city":"Paris"},{"lat":48.820955107880074,"lon":2.260736413345762,"id":21304,"name":"21304 - BLUM (ISSY LES MOULINEAUX)","rawAddress":"FACE 2 PLACE LEON BLUM - 92100 ISSY LES MOULINEAUX","display_name":"21304, Place Léon Blum, Issy-les-Moulineaux, Boulogne-Billancourt, Hauts-de-Seine, Île-de-France, 92130, France métropolitaine","road":"Place Léon Blum","postcode":"92130","city":"Issy-les-Moulineaux"},{"lat":48.87710035109807,"lon":2.351222168052346,"id":10020,"name":"10020 - CHABROL","rawAddress":"59 RUE CHABROL - 75010 PARIS","display_name":"Chabrol, Rue de Chabrol, République, 10e Arrondissement, Paris, Île-de-France, 75010, France métropolitaine","road":"Rue de Chabrol","district":"10e Arrondissement","postcode":"75010","city":"Paris"},{"lat":48.88780106859287,"lon":2.278072424368198,"id":22014,"name":"22014 - HUGO (NEUILLY)","rawAddress":"35 BOULEVARD VICTOR HUGO - 92200 NEUILLY","display_name":"Eglise Adventiste du Septième Jour, 81, Boulevard Bineau, Neuilly-sur-Seine, Nanterre, Hauts-de-Seine, Île-de-France, 92200, France métropolitaine","road":"Boulevard Bineau","postcode":"92200","city":"Neuilly-sur-Seine"},{"lat":48.837061492855675,"lon":2.440446664251129,"id":12125,"name":"12125 - PYRAMIDE ENTRÉE PARC FLORAL","rawAddress":"PYRAMIDE ENTREE PARC FLORAL - 75012 PARIS","display_name":"Pyramide Entrée Parc Floral, Route de la Pyramide, Quartier de Picpus, 12e Arrondissement, Paris, Île-de-France, 75012, France métropolitaine","district":"12e Arrondissement","postcode":"75012","city":"Paris"},{"lat":48.886627148560976,"lon":2.326293689316426,"id":18045,"name":"18045 - GANNERON","rawAddress":"2 RUE PIERRE GINIER - 75018 PARIS","display_name":"2, Rue Pierre Ginier, Quartier des Grandes-Carrières, 18e Arrondissement, Paris, Île-de-France, 75018, France métropolitaine","road":"Rue Pierre Ginier","district":"18e Arrondissement","postcode":"75018","city":"Paris"},{"lat":48.878706853467605,"lon":2.241975493693907,"id":28001,"name":"28001 - WALLACE (PUTEAUX)","rawAddress":"FACE AU 4 BOULEVARD RICHARD WALLACE - 92800 PUTEAUX","display_name":"Station Vélib', Pont de Puteaux, Puteaux, Nanterre, Hauts-de-Seine, Île-de-France, 92800, France métropolitaine","road":"Pont de Puteaux","postcode":"92800","city":"Puteaux"},{"lat":48.838758813496995,"lon":2.3109360795034,"id":15112,"name":"15112 - FALGUIÈRE LEBRUN","rawAddress":"19 RUE VIGEE LEBRUN - 75015 PARIS","display_name":"École élémentaire Vigée-Lebrun, Rue Vigée-Lebrun, Quartier Necker, 15e Arrondissement, Paris, Île-de-France, 75015, France métropolitaine","road":"Rue Vigée-Lebrun","district":"15e Arrondissement","postcode":"75015","city":"Paris"},{"lat":48.87798402750352,"lon":2.318404862782852,"id":8027,"name":"08027 - MAIRIE DU 8 ÈME","rawAddress":"28 RUE DE MADRID - 75008 PARIS","display_name":"JCDecaux, Rue de Madrid, Quartier de l'Europe, 8e Arrondissement, Paris, Île-de-France, 75008, France métropolitaine","road":"Rue de Madrid","district":"8e Arrondissement","postcode":"75008","city":"Paris"},{"lat":48.88714045186671,"lon":2.314521605640858,"id":17017,"name":"17017 - PONT CARDINET","rawAddress":"167 RUE DE ROME - 75017 PARIS","display_name":"Pont Cardinet, Rue de Rome, Quartier des Batignolles, 17e Arrondissement, Paris, Île-de-France, 75017, France métropolitaine","road":"Rue de Rome","district":"17e Arrondissement","postcode":"75017","city":"Paris"},{"lat":48.87397217237368,"lon":2.348388757504776,"id":10005,"name":"10005 - CONSERVATOIRE","rawAddress":"59 RUE DES PETITES ECURIES - 75010 PARIS","display_name":"Conservatoire - 57 Rue des Petites Écuries - 75010 Paris, Rue des Petites Écuries, Sentier, Les Halles, Paris, Île-de-France, 75010, France métropolitaine","road":"Rue des Petites Écuries","postcode":"75010","city":"Paris"},{"lat":48.83633386181695,"lon":2.310466238030852,"id":15017,"name":"15017 - PROCESSION","rawAddress":"7 PLACE FALGUIERE - 75015 PARIS","display_name":"Vélib, Place Falguiere, Quartier Necker, 15e Arrondissement, Paris, Île-de-France, 75015, France métropolitaine","road":"Place Falguiere","district":"15e Arrondissement","postcode":"75015","city":"Paris"},{"lat":48.83657566425033,"lon":2.306874517122675,"id":15018,"name":"15018 - ALLERAY","rawAddress":"85 RUE DUTOT - 75015 PARIS","display_name":"87, Rue Dutot, Quartier Necker, 15e Arrondissement, Paris, Île-de-France, 75015, France métropolitaine","road":"Rue Dutot","district":"15e Arrondissement","postcode":"75015","city":"Paris"},{"lat":48.86554086710007,"lon":2.387724496163364,"id":20031,"name":"20031 - DURIS","rawAddress":"33 RUE DURIS - 75020 PARIS","display_name":"Square des Amandiers, Rue des Cendriers, Ménilmontant, Quartier du Père-Lachaise, 20e Arrondissement, Paris, Île-de-France, 75020, France métropolitaine","district":"20e Arrondissement","postcode":"75020","city":"Paris"},{"lat":48.8537973449702,"lon":2.368400806960401,"id":4101,"name":"04101 - BASTILLE","rawAddress":"11 RUE DE LA BASTILLE - 75004 PARIS","display_name":"11, Rue de la Bastille, Quartier de l'Arsenal, 4e Arrondissement, Paris, Île-de-France, 75004, France métropolitaine","road":"Rue de la Bastille","district":"4e Arrondissement","postcode":"75004","city":"Paris"},{"lat":48.886456815828815,"lon":2.332897827913839,"id":18003,"name":"18003 - JOSEPH DE MAISTRE LEPIC","rawAddress":"2 RUE JOSEPH DE MAISTRE - 75018 PARIS","display_name":"Joseph de Maistre - Lepic, Rue Joseph de Maistre, Quartier des Grandes-Carrières, 18e Arrondissement, Paris, Île-de-France, 75018, France métropolitaine","road":"Rue Joseph de Maistre","district":"18e Arrondissement","postcode":"75018","city":"Paris"},{"lat":48.878590348828126,"lon":2.411899977886774,"id":32601,"name":"32601 - PARIS (LES LILAS)","rawAddress":"46 RUE DE PARIS - 93260 LES LILAS","display_name":"Paris Les Lilas, Rue de Paris, Residence Jallancloud, Belleville, 20e Arrondissement, Île-de-France, 75020, France métropolitaine","road":"Rue de Paris","postcode":"75020","city":"20e Arrondissement"},{"lat":48.824810840809405,"lon":2.367735489853108,"id":13114,"name":"13114 - NATIONALE DUCHAMP (PROP 1)","rawAddress":"46 RUE NATIONALE - 75013 PARIS","display_name":"13114, Rue Nationale, Quartier asiatique, Quartier de la Gare, 13e Arrondissement, Paris, Île-de-France, 75013, France métropolitaine","road":"Rue Nationale","district":"13e Arrondissement","postcode":"75013","city":"Paris"},{"lat":48.85392327608324,"lon":2.400038749270361,"id":20012,"name":"20012 - BUZENVAL VIGNOLES","rawAddress":"90 RUE BUZENVAL - 75020 PARIS","display_name":"20112, Rue de Buzenval, Quartier de Charonne, 20e Arrondissement, Paris, Île-de-France, 75020, France métropolitaine","road":"Rue de Buzenval","district":"20e Arrondissement","postcode":"75020","city":"Paris"},{"lat":48.84749841771691,"lon":2.26848387135299,"id":16032,"name":"16032 - EGLISE D AUTEUIL","rawAddress":"PLACE DE L'EGLISE D'AUTEUIL - 75016 PARIS","display_name":"Église d'Auteuil, Place Théodore Rivière, Quartier d'Auteuil, 16e Arrondissement, Paris, Île-de-France, 75016;75116, France métropolitaine","district":"16e Arrondissement","postcode":"75016;75116","city":"Paris"},{"lat":48.884707293437835,"lon":2.261530819987246,"id":22004,"name":"22004 - CHARLES DE GAULLE (NEUILLY)","rawAddress":"162 AVENUE CHARLES DE GAULLE - 92200 NEUILLY","display_name":"22004, Avenue Charles de Gaulle, Neuilly-sur-Seine, Nanterre, Hauts-de-Seine, Île-de-France, 92200, France métropolitaine","road":"Avenue Charles de Gaulle","postcode":"92200","city":"Neuilly-sur-Seine"},{"lat":48.81466008216803,"lon":2.39826154064032,"id":42003,"name":"42003 - INSURRECTION AOUT 1944 (IVRY)","rawAddress":"2 PLACE DE L'INSURRECTION AOUT 1944 - 94200 IVRY SUR SEINE","display_name":"Place de l'Insurrection d'Août 1944, Ivry-sur-Seine, Créteil, Val-de-Marne, Île-de-France, 94200, France métropolitaine","postcode":"94200","city":"Ivry-sur-Seine"},{"lat":48.8569864146289,"lon":2.282173218142987,"id":16112,"name":"16112 - CHERNOVITZ","rawAddress":"1-3 RUE CHERNOVITZ - 75016 PARIS","display_name":"1, Rue Chernoviz, Quartier de la Muette, 16e Arrondissement, Paris, Île-de-France, 75016;75116, France métropolitaine","road":"Rue Chernoviz","district":"16e Arrondissement","postcode":"75016;75116","city":"Paris"},{"lat":48.83831247462415,"lon":2.308531843822157,"id":15016,"name":"15016 - DUTOT","rawAddress":"59 RUE DUTOT - 75015 PARIS","display_name":"Vélib, Rue Dutot, Quartier Saint-Lambert, 15e Arrondissement, Paris, Île-de-France, 75015, France métropolitaine","road":"Rue Dutot","district":"15e Arrondissement","postcode":"75015","city":"Paris"},{"lat":48.89092238296793,"lon":2.344986482110517,"id":18021,"name":"18021 - MARCADET - RAMEY","rawAddress":"98 RUE MARCADET - 75018 PARIS","display_name":"Marcadet - Ramey, Rue Marcadet, Barbès, Quartier de Clignancourt, 18e Arrondissement, Paris, Île-de-France, 75018, France métropolitaine","road":"Rue Marcadet","district":"18e Arrondissement","postcode":"75018","city":"Paris"},{"lat":48.85288867036487,"lon":2.389147640809553,"id":11102,"name":"11102 - RUE DES BOULETS ( COMPLEMENTAIRE )","rawAddress":"3 RUE ALEXANDRE DUMAS - 75011 PARIS","display_name":"3, Rue Alexandre Dumas, Quartier Sainte-Marguerite, 11e Arrondissement, Paris, Île-de-France, 75011, France métropolitaine","road":"Rue Alexandre Dumas","district":"11e Arrondissement","postcode":"75011","city":"Paris"},{"lat":48.869260223734464,"lon":2.289918722838758,"id":16006,"name":"16006 - RUE LAURISTON","rawAddress":"60 RUE LAURISTON - 75016 PARIS","display_name":"Rue Lauriston, Quartier de Chaillot, 16e Arrondissement, Paris, Île-de-France, 75016;75116, France métropolitaine","road":"Rue Lauriston","district":"16e Arrondissement","postcode":"75016;75116","city":"Paris"},{"lat":48.88210763435887,"lon":2.346261998538882,"id":9006,"name":"09006 - TRUDAINRE ROCHECHOUART","rawAddress":"81 RUE DUNKERQUE - 75009 PARIS","display_name":"Dunkerque - Trudaine, Rue de Dunkerque, Quartier de Rochechouart, 9e Arrondissement, Paris, Île-de-France, 75009, France métropolitaine","road":"Rue de Dunkerque","district":"9e Arrondissement","postcode":"75009","city":"Paris"},{"lat":48.893800171035025,"lon":2.397910366434026,"id":19043,"name":"19043 - PETITS PONTS","rawAddress":"RUE JULES LADOUMEGUE / ANGLE ROUTES DES PETITS PONTS / ANGLE AV. DU GAL. LECLERC - 75019 PARIS","display_name":"Petits Ponts, Rue Delphine Seyrig, Quartier du Pont-de-Flandre, 19e Arrondissement, Paris, Île-de-France, 75019, France métropolitaine","district":"19e Arrondissement","postcode":"75019","city":"Paris"},{"lat":48.901327032601834,"lon":2.335301237471689,"id":34003,"name":"34003 - CURIE (SAINT OUEN)","rawAddress":"2 RUE NEUVE PIERRE CURIE - 93401 SAINT OUEN","display_name":"34003, 2, Rue Neuve Pierre Curie, Saint-Ouen, Saint-Denis, Seine-Saint-Denis, Île-de-France, 93400, France métropolitaine","road":"Rue Neuve Pierre Curie","postcode":"93400","city":"Saint-Ouen"},{"lat":48.867467441464115,"lon":2.344526615114217,"id":2021,"name":"02021 - CLERY","rawAddress":"4 RUE DE CLERY - 75002 PARIS","display_name":"7, Rue de Cléry, Quartier du Mail, 2e Arrondissement, Paris, Île-de-France, 75002, France métropolitaine","road":"Rue de Cléry","district":"2e Arrondissement","postcode":"75002","city":"Paris"},{"lat":48.858688774062955,"lon":2.383553994571467,"id":11023,"name":"11023 - LEO FROT ROQUETTE","rawAddress":"2 RUE SAINT MAUR - 75011 PARIS","display_name":"11023, Rue Saint-Maur, Quartier Saint-Ambroise, 11e Arrondissement, Paris, Île-de-France, 75011, France métropolitaine","road":"Rue Saint-Maur","district":"11e Arrondissement","postcode":"75011","city":"Paris"},{"lat":48.895090329766326,"lon":2.368694139840156,"id":18108,"name":"18108 - EVANGILE","rawAddress":"61 RUE DE L'EVANGILE - 75018 PARIS","display_name":"Evangile, Rue de l'Évangile, Quartier de la Chapelle, 18e Arrondissement, Paris, Île-de-France, 75018, France métropolitaine","road":"Rue de l'Évangile","district":"18e Arrondissement","postcode":"75018","city":"Paris"},{"lat":48.86367225536575,"lon":2.33405760804708,"id":1014,"name":"01014 - RIVOLI MUSEE DU LOUVRE","rawAddress":"5 RUE DE L'ECHELLE - 75001 PARIS","display_name":"Rivoli Musée du Louvre, Rue de l'Échelle, Quartier du Palais Royal, 1er Arrondissement, Paris, Île-de-France, 75001, France métropolitaine","road":"Rue de l'Échelle","district":"1er Arrondissement","postcode":"75001","city":"Paris"},{"lat":48.82903204071324,"lon":2.356183369179921,"id":13029,"name":"13029 - ITALIE","rawAddress":"30 AVENUE D'ITALIE - 75013 PARIS","display_name":"Italie, Avenue d'Italie, Butte aux Cailles, Quartier de la Maison-Blanche, 13e Arrondissement, Paris, Île-de-France, 75013, France métropolitaine","road":"Avenue d'Italie","district":"13e Arrondissement","postcode":"75013","city":"Paris"},{"lat":48.85491133239913,"lon":2.418772429756711,"id":31003,"name":"31003 - PARIS (MONTREUIL)","rawAddress":"237-241 RUE DE PARIS - 93100 MONTREUIL","display_name":"31003, Rue de Paris, Montreuil, Bobigny, Seine-Saint-Denis, Île-de-France, 93100, France métropolitaine","road":"Rue de Paris","postcode":"93100","city":"Montreuil"},{"lat":48.86180485207153,"lon":2.372651428265507,"id":11011,"name":"11011 - RICHARD LENOIR","rawAddress":"FACE 86 BOULEVARD RICHARD LENOIR - 75011 PARIS","display_name":"Face au 86 Boulevard Richard Lenoir - 75011 Paris, Boulevard Richard Lenoir, Quartier Saint-Ambroise, 11e Arrondissement, Paris, Île-de-France, 75011, France métropolitaine","district":"11e Arrondissement","postcode":"75011","city":"Paris"},{"lat":48.824489702456674,"lon":2.318447431048976,"id":14021,"name":"14021 - PLACE DE LA PORTE DE CHATILLON","rawAddress":"BOULEVARD BRUNE PORTE DE CHATILLON - 75014 PARIS","display_name":"velib, Boulevard Brune, Quartier de Plaisance, 14e Arrondissement, Paris, Île-de-France, 75014, France métropolitaine","district":"14e Arrondissement","postcode":"75014","city":"Paris"},{"lat":48.87563618071149,"lon":2.399461451982782,"id":19040,"name":"19040 - TELEGRAPHE","rawAddress":"265 RUE DE BELLEVILLE - 75019 PARIS","display_name":"Télégraphe - 265 Rue de Belleville - 75019 Paris, Rue de Belleville, Quartier Saint-Fargeau, 20e Arrondissement, Paris, Île-de-France, 75020, France métropolitaine","road":"Rue de Belleville","district":"20e Arrondissement","postcode":"75020","city":"Paris"},{"lat":48.87144635392104,"lon":2.338290105850787,"id":2013,"name":"02013 - RICHELIEU DROUOT","rawAddress":"20 RUE FAVART - 75002 PARIS","display_name":"18, Rue Favart, Quartier Vivienne, 2e Arrondissement, Paris, Île-de-France, 75002, France métropolitaine","road":"Rue Favart","district":"2e Arrondissement","postcode":"75002","city":"Paris"},{"lat":48.859068394963046,"lon":2.318624221125004,"id":7011,"name":"07011 - ST DOMINIQUE","rawAddress":"30 BIS RUE LAS CASES - 75007 PARIS","display_name":"30b, Rue Las Cases, Quartier des Invalides, 7e Arrondissement, Paris, Île-de-France, 75007, France métropolitaine","road":"Rue Las Cases","district":"7e Arrondissement","postcode":"75007","city":"Paris"},{"lat":48.87326713758289,"lon":2.340753448052758,"id":9013,"name":"09013 - MAIRIE DU 9EME","rawAddress":"20 RUE DE LA GRANGE BATELIERE - 75009 PARIS","display_name":"20, Rue de la Grange Batelière, Quartier du Faubourg-Montmartre, 9e Arrondissement, Paris, Île-de-France, 75009, France métropolitaine","road":"Rue de la Grange Batelière","district":"9e Arrondissement","postcode":"75009","city":"Paris"},{"lat":48.890020496141,"lon":2.3175909298999,"id":17111,"name":"17111 - LEMERCIER","rawAddress":"109 RUE LEMERCIER - 75017 PARIS","display_name":"109, Rue Lemercier, Quartier des Batignolles, 17e Arrondissement, Paris, Île-de-France, 75017, France métropolitaine","road":"Rue Lemercier","district":"17e Arrondissement","postcode":"75017","city":"Paris"},{"lat":48.86377283202625,"lon":2.342707561978307,"id":1024,"name":"01024 - LOUVRE COQ HERON","rawAddress":"20 RUE COQUILLIERE - 75001 PARIS","display_name":"Le Panier Gourmet - Franprix, Rue du Louvre, Quartier Les Halles, 1er Arrondissement, Paris, Île-de-France, 75001, France métropolitaine","road":"Rue du Louvre","district":"1er Arrondissement","postcode":"75001","city":"Paris"},{"lat":48.812800296374675,"lon":2.361041166442304,"id":42705,"name":"42705 - CONVENTION (LE KREMLIN BICETRE)","rawAddress":"1 RUE DE LA CONVENTION - 94270 LE KREMLIN BICETRE","display_name":"Convention (Le Kremlin Bicetre), Rue de la Convention, Le Kremlin-Bicêtre, L'Haÿ-les-Roses, Val-de-Marne, Île-de-France, 94270, France métropolitaine","road":"Rue de la Convention","postcode":"94270","city":"Le Kremlin-Bicêtre"},{"lat":48.84920849993863,"lon":2.328514546230014,"id":6025,"name":"06025 - RENNES - ASSAS","rawAddress":"16 RUE D'ASSAS - 75006 PARIS","display_name":"16, Rue d'Assas, Quartier Notre-Dame-des-Champs, 6e Arrondissement, Paris, Île-de-France, 75006, France métropolitaine","road":"Rue d'Assas","district":"6e Arrondissement","postcode":"75006","city":"Paris"},{"lat":48.87935510317391,"lon":2.358379192454538,"id":10027,"name":"10027 - DUNKERQUE","rawAddress":"4 RUE DE DUNKERQUE - 75010 PARIS","display_name":"4, Rue de Dunkerque, Quartier Saint-Vincent-de-Paul, 10e Arrondissement, Paris, Île-de-France, 75010, France métropolitaine","road":"Rue de Dunkerque","district":"10e Arrondissement","postcode":"75010","city":"Paris"},{"lat":48.87673249893723,"lon":2.33048422584945,"id":9102,"name":"09102 - PLACE D'ESTIENNE D'ORVES","rawAddress":"2 RUE DE LONDRES - 75009 PARIS","display_name":"Place d'Estienne d'Orves, Rue de Londres, Quartier Saint-Georges, 9e Arrondissement, Paris, Île-de-France, 75009, France métropolitaine","road":"Rue de Londres","district":"9e Arrondissement","postcode":"75009","city":"Paris"},{"lat":48.872381,"lon":2.275283,"id":16135,"name":"16135 - STADE WILMILLE","rawAddress":"ROND POINT DU MARECHAL DELATRE DE TASSIGNY - 75016 PARIS","display_name":"Place du Maréchal de Lattre de Tassigny, Quartier de la Porte-Dauphine, 16e Arrondissement, Paris, Île-de-France, 75016;75116, France métropolitaine","road":"Place du Maréchal de Lattre de Tassigny","district":"16e Arrondissement","postcode":"75016;75116","city":"Paris"},{"lat":48.857829110709226,"lon":2.319149052579355,"id":7102,"name":"07102 - SAINTE CLOTHILDE","rawAddress":"FACE 19 RUE CASIMIR PERIER - 75007 PARIS","display_name":"7102, Rue Casimir Périer, Quartier des Invalides, 7e Arrondissement, Paris, Île-de-France, 75007, France métropolitaine","road":"Rue Casimir Périer","district":"7e Arrondissement","postcode":"75007","city":"Paris"},{"lat":48.833473679272245,"lon":2.243900532079072,"id":21017,"name":"21017 - REPUBLIQUE 1 (BOULOGNE-BILLANCOURT)","rawAddress":"91 BOULEVARD DE LA REPUBLIPQUE - 92100 BOULOGNE-BILLANCOURT","display_name":"G. Dowson, Boulevard de la République, Boulogne-Billancourt, Hauts-de-Seine, Île-de-France, 92100, France métropolitaine","road":"Boulevard de la République","postcode":"92100","city":"Boulogne-Billancourt"},{"lat":48.8983850226507,"lon":2.36087734922712,"id":18048,"name":"18048 - PORTE DE LA CHAPELLE","rawAddress":"29 BOULEVARD NEY - 75018 PARIS","display_name":"Platanus, Boulevard Ney, Quartier de la Chapelle, 18e Arrondissement, Paris, Île-de-France, 75018, France métropolitaine","road":"Boulevard Ney","district":"18e Arrondissement","postcode":"75018","city":"Paris"},{"lat":48.83136668000465,"lon":2.340811882152406,"id":14007,"name":"14007 - SAINT JACQUES FERRUS","rawAddress":"1 RUE FERRUS - 75014 PARIS","display_name":"Saint-Jacques - Ferrus, Rue Ferrus, Quartier du Parc-de-Montsouris, 14e Arrondissement, Paris, Île-de-France, 75014, France métropolitaine","road":"Rue Ferrus","district":"14e Arrondissement","postcode":"75014","city":"Paris"},{"lat":48.88095574164779,"lon":2.352430514838522,"id":10033,"name":"10033 - LARIBOISIERE","rawAddress":"15 RUE SAINT VINCENT DE PAUL - 75010 PARIS","display_name":"15, Rue Saint-Vincent de Paul, Quartier Saint-Vincent-de-Paul, 10e Arrondissement, Paris, Île-de-France, 75010, France métropolitaine","road":"Rue Saint-Vincent de Paul","district":"10e Arrondissement","postcode":"75010","city":"Paris"},{"lat":48.84506225637803,"lon":2.349497789857777,"id":5016,"name":"05016 - CONTRESCARPE-THOUIN","rawAddress":"1 RUE THOUIN - 75005 PARIS","display_name":"JCDecaux, Rue Thouin, Quartier Latin, 5e Arrondissement, Paris, Île-de-France, 75005, France métropolitaine","road":"Rue Thouin","district":"5e Arrondissement","postcode":"75005","city":"Paris"},{"lat":48.87659994083545,"lon":2.31316505435543,"id":8035,"name":"08035 - NARVICK","rawAddress":"54 RUE DE LA BIENFAISANCE - 75008 PARIS","display_name":"54, Rue de la Bienfaisance, Quartier de l'Europe, 8e Arrondissement, Paris, Île-de-France, 75008, France métropolitaine","road":"Rue de la Bienfaisance","district":"8e Arrondissement","postcode":"75008","city":"Paris"},{"lat":48.8664391603377,"lon":2.28574594430153,"id":16009,"name":"16009 - SAINT DIDIER","rawAddress":"32 RUE SAINT DIDIER - 75016 PARIS","display_name":"32, Rue Saint-Didier, Quartier de Chaillot, 16e Arrondissement, Paris, Île-de-France, 75016, France métropolitaine","road":"Rue Saint-Didier","district":"16e Arrondissement","postcode":"75016","city":"Paris"},{"lat":48.82032218367611,"lon":2.394981240086619,"id":42001,"name":"42001 - JULES (IVRY)","rawAddress":"1 RUE JULES VANZUPPE - 94200 IVRY","display_name":"Ivry Vanzuppe, Rue Jules Vanzuppe, Ivry-sur-Seine, Créteil, Val-de-Marne, Île-de-France, 94200, France métropolitaine","road":"Rue Jules Vanzuppe","postcode":"94200","city":"Ivry-sur-Seine"},{"lat":48.840023256521405,"lon":2.239818996972534,"id":21004,"name":"21004 - JAURES 2 (BOULOGNE-BILLANCOURT)","rawAddress":"55 BOULEVARD JEAN JAURES - 92100 BOULOGNE-BILLANCOURT","display_name":"21004, Boulevard Jean Jaurès, Boulogne-Billancourt, Hauts-de-Seine, Île-de-France, 92100, France métropolitaine","road":"Boulevard Jean Jaurès","postcode":"92100","city":"Boulogne-Billancourt"},{"lat":48.840094446742086,"lon":2.271589911985344,"id":15058,"name":"15058 - GEORGES POMPIDOU","rawAddress":"4 PLACE DU MOULIN DE JAVEL - 75015 PARIS","display_name":"4, Rue Leblanc, Quartier de Javel, 15e Arrondissement, Paris, Île-de-France, 75015, France métropolitaine","road":"Rue Leblanc","district":"15e Arrondissement","postcode":"75015","city":"Paris"},{"lat":48.87686690577979,"lon":2.356119082991818,"id":10022,"name":"10022 - CHABROL SAINT QUENTIN","rawAddress":"FACE 124 RUE DU FAUBOURG SAINT DENIS - 75010 PARIS","display_name":"125, Rue du Faubourg Saint-Denis, Quartier Saint-Vincent-de-Paul, 10e Arrondissement, Paris, Île-de-France, 75010, France métropolitaine","road":"Rue du Faubourg Saint-Denis","district":"10e Arrondissement","postcode":"75010","city":"Paris"},{"lat":48.845143494008845,"lon":2.345412681213507,"id":5012,"name":"05012 - ULM - LHOMOND","rawAddress":"20 RUE DE L'ESTRAPADE - 75005 PARIS","display_name":"20, Rue de l'Estrapade, Quartier Latin, 5e Arrondissement, Paris, Île-de-France, 75005, France métropolitaine","road":"Rue de l'Estrapade","district":"5e Arrondissement","postcode":"75005","city":"Paris"},{"lat":48.89034195521685,"lon":2.397813642189543,"id":19034,"name":"19034 - PANTIN","rawAddress":"20 AVENUE DE LA PORTE DE PANTIN - 75019 PARIS","display_name":"Tennis municipal couvert des Sept Arpents, Rue des Sept Arpents, Quartier d'Amérique, 19e Arrondissement, Paris, Île-de-France, 75019, France métropolitaine","road":"Rue des Sept Arpents","district":"19e Arrondissement","postcode":"75019","city":"Paris"},{"lat":48.878034461503965,"lon":2.326483540969424,"id":8101,"name":"08101 - LONDRES AMSTERDAM","rawAddress":"42 RUE DE LONDRES - 75008 PARIS","display_name":"42, Rue de Londres, Quartier de l'Europe, 8e Arrondissement, Paris, Île-de-France, 75008, France métropolitaine","road":"Rue de Londres","district":"8e Arrondissement","postcode":"75008","city":"Paris"},{"lat":48.86095933229224,"lon":2.400421852042113,"id":20020,"name":"20020 - PYRENEES RENOUVIER","rawAddress":"183 RUE DES PYRENEES - 75020 PARIS","display_name":"183, Rue des Pyrénées, Ménilmontant, Quartier du Père-Lachaise, 20e Arrondissement, Paris, Île-de-France, 75020, France métropolitaine","road":"Rue des Pyrénées","district":"20e Arrondissement","postcode":"75020","city":"Paris"},{"lat":48.9145061128239,"lon":2.39105149687865,"id":33013,"name":"33013 - RECHAUSSIERE (AUBERVILLIERS)","rawAddress":"52 RUE LEOPOLD RECHOSSIERE - 93300 AUBERVILLIERS","display_name":"33013, Rue Léopold Réchossière, Aubervilliers, Saint-Denis, Seine-Saint-Denis, Île-de-France, 93300, France métropolitaine","road":"Rue Léopold Réchossière","postcode":"93300","city":"Aubervilliers"},{"lat":48.813127647916225,"lon":2.346794374352219,"id":42502,"name":"42502 - RASPAIL 2 (GENTILLY)","rawAddress":"FACE AU 79 AVENUE RASPAIL- 94250 GENTILLY","display_name":"Dia, Rue Nicolas Debray, Gentilly, L'Haÿ-les-Roses, Val-de-Marne, Île-de-France, 94250, France métropolitaine","road":"Rue Nicolas Debray","postcode":"94250","city":"Gentilly"},{"lat":48.871213712191214,"lon":2.293692133647844,"id":16001,"name":"16001 - AVENUE DES PORTUGAIS","rawAddress":"2 AVENUE DES PORTUGAIS - 75016 PARIS","display_name":"Avenue des Portugais, Quartier de Chaillot, 16e Arrondissement, Paris, Île-de-France, 75016;75116, France métropolitaine","road":"Avenue des Portugais","district":"16e Arrondissement","postcode":"75016;75116","city":"Paris"},{"lat":48.85091460817171,"lon":2.301293384670141,"id":15024,"name":"15024 - LAOS","rawAddress":"88 AVENUE DE SUFFREN - 75015 PARIS","display_name":"JCDecaux, Avenue de Suffren, Quartier de l'École Militaire, 7e Arrondissement, Paris, Île-de-France, 75007, France métropolitaine","road":"Avenue de Suffren","district":"7e Arrondissement","postcode":"75007","city":"Paris"},{"lat":48.8410800220159,"lon":2.35543071424475,"id":5028,"name":"05028 - CENSIER BUFFON","rawAddress":"6 RUE CENSIER - 75005 PARIS","display_name":"Censier Buffon, Rue Censier, Quartier du Jardin des Plantes, 5e Arrondissement, Paris, Île-de-France, 75005, France métropolitaine","road":"Rue Censier","district":"5e Arrondissement","postcode":"75005","city":"Paris"},{"lat":48.86479366612619,"lon":2.329431421945852,"id":1018,"name":"01018 - RIVOLI TUILERIE","rawAddress":"2 RUE D'ALGER - 75001 PARIS","display_name":"1018, Rue d'Alger, Quartier Vendôme, 1er Arrondissement, Paris, Île-de-France, 75001, France métropolitaine","road":"Rue d'Alger","district":"1er Arrondissement","postcode":"75001","city":"Paris"},{"lat":48.88526331365403,"lon":2.298286466799226,"id":17027,"name":"17027 - PEREIRE LEVALLOIS","rawAddress":"121 BOULEVARD PEREIRE - 75017 PARIS","display_name":"121, Boulevard Pereire, Quartier de la Plaine-de-Monceau, 17e Arrondissement, Paris, Île-de-France, 75017, France métropolitaine","road":"Boulevard Pereire","district":"17e Arrondissement","postcode":"75017","city":"Paris"},{"lat":48.88126816395289,"lon":2.368117527990073,"id":10037,"name":"10037 - VERSION 2 JAURES","rawAddress":"EGLISE SAINT JOSEPH ARTISAN - 75010 PARIS","display_name":"JCDecaux, Quai de Valmy, Quartier de l'Hôpital Saint-Louis, 10e Arrondissement, Paris, Île-de-France, 75010, France métropolitaine","road":"Quai de Valmy","district":"10e Arrondissement","postcode":"75010","city":"Paris"},{"lat":48.81948999388875,"lon":2.253869419958486,"id":21301,"name":"21301 - SAINT VINCENT (ISSY LES MOULINEAUX)","rawAddress":"21 RUE SAINT VINCENT - 92130 ISSY LES MOULINEAUX","display_name":"Cour St Vincent Issy, Cours Saint-Vincent, Issy-les-Moulineaux, Boulogne-Billancourt, Hauts-de-Seine, Île-de-France, 92130, France métropolitaine","road":"Cours Saint-Vincent","postcode":"92130","city":"Issy-les-Moulineaux"},{"lat":48.846383773003375,"lon":2.280008411904129,"id":15065,"name":"15065 - HUMBERT","rawAddress":"23 RUE EMILE ZOLA - 75015 PARIS","display_name":"23, Avenue Émile Zola, Quartier de Grenelle, 15e Arrondissement, Paris, Île-de-France, 75015, France métropolitaine","road":"Avenue Émile Zola","district":"15e Arrondissement","postcode":"75015","city":"Paris"},{"lat":48.89648283189724,"lon":2.358845525233447,"id":18102,"name":"18102 - RUE DE LA CHAPELLE","rawAddress":"69 BIS RUE DE LA CHAPELLE - 75018 PARIS","display_name":"69 Ter, Rue de la Chapelle, Quartier de la Chapelle, 18e Arrondissement, Paris, Île-de-France, 75018, France métropolitaine","road":"Rue de la Chapelle","district":"18e Arrondissement","postcode":"75018","city":"Paris"},{"lat":48.89935963697993,"lon":2.304040560698093,"id":21107,"name":"21107 - SINCHOLLE (CLICHY)","rawAddress":"RUE BERTRAND SINCHOLLE - 92110 CLICHY","display_name":"Sincholle Clichy, Rue Henri Barbusse, Clichy, Nanterre, Hauts-de-Seine, Île-de-France, 92110, France métropolitaine","road":"Rue Henri Barbusse","postcode":"92110","city":"Clichy"},{"lat":48.870753284048824,"lon":2.274875298344967,"id":16004,"name":"16004 - BOULEVARD LANNES","rawAddress":"FACE 2 BOULEVARD LANNES - 75016 PARIS","display_name":"Malakoff, Boulevard Lannes, Quartier de la Porte-Dauphine, 16e Arrondissement, Paris, Île-de-France, 75016;75116, France métropolitaine","road":"Boulevard Lannes","district":"16e Arrondissement","postcode":"75016;75116","city":"Paris"},{"lat":48.851617204998654,"lon":2.401513597307666,"id":20007,"name":"20007 - BUZENVAL","rawAddress":"52 RUE BUZENVAL - 75020 PARIS","display_name":"20007, Rue de Buzenval, Quartier de Charonne, 20e Arrondissement, Paris, Île-de-France, 75020, France métropolitaine","road":"Rue de Buzenval","district":"20e Arrondissement","postcode":"75020","city":"Paris"},{"lat":48.84706441752541,"lon":2.416022960021078,"id":20004,"name":"20004 - PORTE DE VINCENNES BIS","rawAddress":"10 RUE DU COMMANDANT L'HERMINIER - 75020 PARIS","display_name":"Porte de Vincennes bis, Rue du Commandant L'Herminier, Quartier de Charonne, 20e Arrondissement, Paris, Île-de-France, 75020, France métropolitaine","road":"Rue du Commandant L'Herminier","district":"20e Arrondissement","postcode":"75020","city":"Paris"},{"lat":48.82656671997367,"lon":2.313276757777748,"id":14022,"name":"14022 - BRUNE DIDOT","rawAddress":"108 RUE DIDOT - 75014 PARIS","display_name":"Brune - Didot, Rue Didot, Quartier de Plaisance, 14e Arrondissement, Paris, Île-de-France, 75014, France métropolitaine","road":"Rue Didot","district":"14e Arrondissement","postcode":"75014","city":"Paris"},{"lat":48.81755975358179,"lon":2.307485841267489,"id":22404,"name":"22404 - BROSSOLETTE 2 (MALAKOFF)","rawAddress":"102 AVENUE PIERRE BROSSOLETTE - 92240 MALAKOFF","display_name":"12 Février 1934, Avenue Pierre Brossolette, Antony, Hauts-de-Seine, Île-de-France, 92240, France métropolitaine","road":"Avenue Pierre Brossolette","postcode":"92240"},{"lat":48.859846683206975,"lon":2.361050487092021,"id":3008,"name":"03008 - PERLE","rawAddress":"22 RUE DE LA PERLE - 75003 PARIS","display_name":"22, Rue de la Perle, Quartier des Archives, 3e Arrondissement, Paris, Île-de-France, 75003, France métropolitaine","road":"Rue de la Perle","district":"3e Arrondissement","postcode":"75003","city":"Paris"},{"lat":48.8761373390584,"lon":2.3680844979417,"id":10115,"name":"10115 - DODU","rawAddress":"1 - 3 RUE DES ECLUSES SAINT MARTIN - 75010 PARIS","display_name":"Dodu - 1, 3 Rue des Ecluses Saint-Martin - 75010 Paris, Rue des Écluses Saint-Martin, Quartier de l'Hôpital Saint-Louis, 10e Arrondissement, Paris, Île-de-France, 75010, France métropolitaine","road":"Rue des Écluses Saint-Martin","district":"10e Arrondissement","postcode":"75010","city":"Paris"},{"lat":48.84931182683785,"lon":2.417909769042342,"id":41604,"name":"41604 - LAGNY (SAINT MANDE)","rawAddress":"126 RUE LAGNY / ANGLE AVENUE JOFFRE - 94160 SAINT MANDE","display_name":"126, Rue de Lagny, Montreuil, Bobigny, Seine-Saint-Denis, Île-de-France, 93100, France métropolitaine","road":"Rue de Lagny","postcode":"93100","city":"Montreuil"},{"lat":48.8589230268289,"lon":2.44314211823533,"id":31011,"name":"31011 - STALINGRAD 2 (MONTREUIL)","rawAddress":"27 RUE DE STALINGRAD - 93100 MONTREUIL","display_name":"31011, Rue Clotilde Gaillard, Montreuil, Bobigny, Seine-Saint-Denis, Île-de-France, 93100, France métropolitaine","road":"Rue Clotilde Gaillard","postcode":"93100","city":"Montreuil"},{"lat":48.89876008065392,"lon":2.329558517454781,"id":17115,"name":"17115 - PORTE DE SAINT OUEN","rawAddress":"22 AVENUE DE LA PORTE DE SAINT OUEN - 75017 PARIS","display_name":"17115, Rue Henri Huchard, Quartier des Grandes-Carrières, 18e Arrondissement, Paris, Île-de-France, 75018, France métropolitaine","road":"Rue Henri Huchard","district":"18e Arrondissement","postcode":"75018","city":"Paris"},{"lat":48.8615729587877,"lon":2.40568863716159,"id":20108,"name":"20108 - HOSPICE DEBROUSSE","rawAddress":"142 RUE DE BAGNOLET - 75020 PARIS","display_name":"Hospice Debrousse - 142 rue de Bagnolet 75020 Paris, Rue de Bagnolet, Quartier de Charonne, 20e Arrondissement, Paris, Île-de-France, 75020, France métropolitaine","road":"Rue de Bagnolet","district":"20e Arrondissement","postcode":"75020","city":"Paris"},{"lat":48.91042912572328,"lon":2.311768175774796,"id":21112,"name":"21112 - DEBUSSY (CLICHY)","rawAddress":"31/35 AVENUE CLAUDE DEBUSSY - 92110 CLICHY","display_name":"21112, Avenue Claude Debussy, Clichy, Nanterre, Hauts-de-Seine, Île-de-France, 92110, France métropolitaine","road":"Avenue Claude Debussy","postcode":"92110","city":"Clichy"},{"lat":48.838734408274696,"lon":2.281755540138765,"id":15032,"name":"15032 - LOURMEL","rawAddress":"112 AVE FELIX FAURE - 75015 PARIS","display_name":"Résidence Paris XV, Avenue Félix Faure, Quartier de Javel, 15e Arrondissement, Paris, Île-de-France, 75015, France métropolitaine","road":"Avenue Félix Faure","district":"15e Arrondissement","postcode":"75015","city":"Paris"},{"lat":48.87995716383757,"lon":2.321359676280949,"id":8019,"name":"08019 - EUROPE","rawAddress":"03 RUE DE NAPLES - 75008 PARIS","display_name":"1, Rue de Naples, Quartier de l'Europe, 8e Arrondissement, Paris, Île-de-France, 75008, France métropolitaine","road":"Rue de Naples","district":"8e Arrondissement","postcode":"75008","city":"Paris"},{"lat":48.87170519139307,"lon":2.298528265679806,"id":8003,"name":"08003 - GALILLE","rawAddress":"63 RUE GALILEE - 75008 PARIS","display_name":"63, Rue Galilée, Quartier des Champs-Élysées, 8e Arrondissement, Paris, Île-de-France, 75008, France métropolitaine","road":"Rue Galilée","district":"8e Arrondissement","postcode":"75008","city":"Paris"},{"lat":48.84923030086477,"lon":2.421429940007031,"id":31001,"name":"31001 - LAGNY (MONTREUIL)","rawAddress":"96 RUE DE LAGNY - 93100 MONTREUIL","display_name":"39, Rue de Lagny, Charonne, 12e Arrondissement, Île-de-France, 75012, France métropolitaine","road":"Rue de Lagny","postcode":"75012","city":"12e Arrondissement"},{"lat":48.873385805429535,"lon":2.33529683976619,"id":9024,"name":"09024 - LAFAYETTE TAITBOUT","rawAddress":"27 RUE TAITBOUT - 75009 PARIS","display_name":"27, Rue Taitbout, Quartier de la Chaussée-d'Antin, 9e Arrondissement, Paris, Île-de-France, 75009, France métropolitaine","road":"Rue Taitbout","district":"9e Arrondissement","postcode":"75009","city":"Paris"},{"lat":48.88832421845225,"lon":2.353573372638597,"id":18014,"name":"18014 - DOUDEAUVILLE LEON","rawAddress":"26 RUE LEON - 75018 PARIS","display_name":"Doudeauville Leon, Rue Léon, La Goutte d'Or, Quartier de la Goutte-d'Or, 18e Arrondissement, Paris, Île-de-France, 75018, France métropolitaine","road":"Rue Léon","district":"18e Arrondissement","postcode":"75018","city":"Paris"},{"lat":48.8988301928079,"lon":2.37933010909776,"id":19045,"name":"19045 - CANAL SAINT DENIS - BD MACDONALD","rawAddress":"145 BOULEVARD MCDONALD - 75019 PARIS","display_name":"velib-19045, Boulevard MacDonald, Quartier du Pont-de-Flandre, 19e Arrondissement, Paris, Île-de-France, 75019, France métropolitaine","road":"Boulevard MacDonald","district":"19e Arrondissement","postcode":"75019","city":"Paris"},{"lat":48.88207022703438,"lon":2.336679631444242,"id":9018,"name":"09018 - PLACE PIGALLE","rawAddress":"05 RUE DUPERRE - 75009 PARIS","display_name":"Place Pigalle, Rue Duperré, Quartier Saint-Georges, 9e Arrondissement, Paris, Île-de-France, 75009, France métropolitaine","road":"Rue Duperré","district":"9e Arrondissement","postcode":"75009","city":"Paris"},{"lat":48.875384905581136,"lon":2.356094018642288,"id":10018,"name":"10018 - ALBAN SATRAGNE","rawAddress":"110-112 RUE FAUBOURG SAINT DENIS - 75010 PARIS","display_name":"110, Rue du Faubourg Saint-Denis, Quartier de la Porte-Saint-Denis, 10e Arrondissement, Paris, Île-de-France, 75010, France métropolitaine","road":"Rue du Faubourg Saint-Denis","district":"10e Arrondissement","postcode":"75010","city":"Paris"},{"lat":48.807211123250035,"lon":2.353852672868236,"id":42701,"name":"42701 - GIDE (LE KREMLIN BICETRE)","rawAddress":"FACE 50 AVENUE CHARLES GIDE - 94270 LE KREMELIN BICETRE","display_name":"JCDecaux, Avenue Charles Gide, Le Kremlin-Bicêtre, L'Haÿ-les-Roses, Val-de-Marne, Île-de-France, 94270, France métropolitaine","road":"Avenue Charles Gide","postcode":"94270","city":"Le Kremlin-Bicêtre"},{"lat":48.871512741519155,"lon":2.307487564419454,"id":8050,"name":"08050 - BOETIE PONTHIEU","rawAddress":"116 RUE DE LA BOETIE - 75008 PARIS","display_name":"Boétie Ponthieu, Rue La Boétie, Quartier du Faubourg-du-Roule, 8e Arrondissement, Paris, Île-de-France, 75008, France métropolitaine","road":"Rue La Boétie","district":"8e Arrondissement","postcode":"75008","city":"Paris"},